zip,lat,lng,city,state_id,state_name,zcta,parent_zcta,population,density,county_fips,county_name,all_county_weights,imprecise,military,timezone
00601,18.18,-66.7522,Adjuntas,PR,Puerto Rico,TRUE,,18570,111.4,72001,Adjuntas,"{'72001':99.43,'72141':0.57}",FALSE,FALSE,America/Puerto_Rico
00602,18.3607,-67.1752,Aguada,PR,Puerto Rico,TRUE,,41520,523.7,72003,Aguada,{'72003':100},FALSE,FALSE,America/Puerto_Rico
00603,18.4544,-67.122,Aguadilla,PR,Puerto Rico,TRUE,,54689,667.9,72005,Aguadilla,{'72005':100},FALSE,FALSE,America/Puerto_Rico
00606,18.1672,-66.9383,Maricao,PR,Puerto Rico,TRUE,,6615,60.4,72093,Maricao,"{'72093':94.88,'72121':1.35,'72153':3.78}",FALSE,FALSE,America/Puerto_Rico
00610,18.2903,-67.1224,Anasco,PR,Puerto Rico,TRUE,,29016,311.9,72011,Añasco,"{'72003':0.55,'72011':99.45}",FALSE,FALSE,America/Puerto_Rico
00612,18.407,-66.708,Arecibo,PR,Puerto Rico,TRUE,,67010,382.7,72013,Arecibo,"{'72013':99.89,'72017':0.11}",FALSE,FALSE,America/Puerto_Rico
00616,18.4175,-66.6681,Bajadero,PR,Puerto Rico,TRUE,,11017,368.9,72013,Arecibo,{'72013':100},FALSE,FALSE,America/Puerto_Rico
00617,18.4412,-66.5592,Barceloneta,PR,Puerto Rico,TRUE,,24597,625.1,72017,Barceloneta,"{'72017':99.43,'72054':0.57}",FALSE,FALSE,America/Puerto_Rico
00622,17.9917,-67.1525,Boqueron,PR,Puerto Rico,TRUE,,7853,104.6,72023,Cabo Rojo,{'72023':100},FALSE,FALSE,America/Puerto_Rico
00623,18.0835,-67.1542,Cabo Rojo,PR,Puerto Rico,TRUE,,43061,437.8,72023,Cabo Rojo,{'72023':100},FALSE,FALSE,America/Puerto_Rico
00624,18.0646,-66.7182,Penuelas,PR,Puerto Rico,TRUE,,26241,234.7,72111,Peñuelas,"{'72111':92.53,'72113':7.47}",FALSE,FALSE,America/Puerto_Rico
00627,18.419,-66.8603,Camuy,PR,Puerto Rico,TRUE,,35159,292.8,72027,Camuy,{'72027':100},FALSE,FALSE,America/Puerto_Rico
00631,18.1856,-66.8333,Castaner,PR,Puerto Rico,TRUE,,1852,177.8,72081,Lares,"{'72001':32.99,'72081':67.01}",FALSE,FALSE,America/Puerto_Rico
00637,18.0798,-66.9427,Sabana Grande,PR,Puerto Rico,TRUE,,25287,283.4,72121,Sabana Grande,"{'72121':99.56,'72153':0.44}",FALSE,FALSE,America/Puerto_Rico
00638,18.289,-66.5151,Ciales,PR,Puerto Rico,TRUE,,18941,110.7,72039,Ciales,"{'72039':98.27,'72091':1.73}",FALSE,FALSE,America/Puerto_Rico
00641,18.2641,-66.7138,Utuado,PR,Puerto Rico,TRUE,,31191,128.8,72141,Utuado,"{'72001':0.21,'72141':99.79}",FALSE,FALSE,America/Puerto_Rico
00646,18.434,-66.2833,Dorado,PR,Puerto Rico,TRUE,,38199,712.5,72051,Dorado,"{'72051':99.89,'72143':0.11}",FALSE,FALSE,America/Puerto_Rico
00647,17.9661,-66.9438,Ensenada,PR,Puerto Rico,TRUE,,6172,156.7,72055,Guánica,"{'72055':98.88,'72079':1.12}",FALSE,FALSE,America/Puerto_Rico
00650,18.3432,-66.586,Florida,PR,Puerto Rico,TRUE,,14998,189.7,72054,Florida,"{'72013':1.51,'72017':1.91,'72039':1.13,'72054':83.61,'72141':11.84}",FALSE,FALSE,America/Puerto_Rico
00652,18.4554,-66.6063,Garrochales,PR,Puerto Rico,TRUE,,4715,263.2,72013,Arecibo,{'72013':100},FALSE,FALSE,America/Puerto_Rico
00653,17.9857,-66.8903,Guanica,PR,Puerto Rico,TRUE,,13307,337.1,72055,Guánica,{'72055':100},FALSE,FALSE,America/Puerto_Rico
00656,18.0528,-66.7918,Guayanilla,PR,Puerto Rico,TRUE,,21481,255.9,72059,Guayanilla,{'72059':100},FALSE,FALSE,America/Puerto_Rico
00659,18.4107,-66.7965,Hatillo,PR,Puerto Rico,TRUE,,41953,387.7,72065,Hatillo,{'72065':100},FALSE,FALSE,America/Puerto_Rico
00660,18.1342,-67.114,Hormigueros,PR,Puerto Rico,TRUE,,17250,587.4,72067,Hormigueros,{'72067':100},FALSE,FALSE,America/Puerto_Rico
00662,18.4621,-67.0144,Isabela,PR,Puerto Rico,TRUE,,43282,376.7,72071,Isabela,{'72071':100},FALSE,FALSE,America/Puerto_Rico
00664,18.2115,-66.5889,Jayuya,PR,Puerto Rico,TRUE,,16784,142.4,72073,Jayuya,"{'72073':99.15,'72141':0.85}",FALSE,FALSE,America/Puerto_Rico
00667,18.0123,-67.0409,Lajas,PR,Puerto Rico,TRUE,,25968,166.2,72079,Lajas,"{'72079':98.91,'72125':1.09}",FALSE,FALSE,America/Puerto_Rico
00669,18.271,-66.8698,Lares,PR,Puerto Rico,TRUE,,29744,186.6,72081,Lares,"{'72081':99.22,'72083':0.62,'72131':0.16}",FALSE,FALSE,America/Puerto_Rico
00670,18.2378,-66.9887,Las Marias,PR,Puerto Rico,TRUE,,9807,83.1,72083,Las Marías,"{'72011':1.12,'72083':98.88}",FALSE,FALSE,America/Puerto_Rico
00674,18.4212,-66.49,Manati,PR,Puerto Rico,TRUE,,44457,381.9,72091,Manatí,"{'72091':98.49,'72145':1.51}",FALSE,FALSE,America/Puerto_Rico
00676,18.3779,-67.0808,Moca,PR,Puerto Rico,TRUE,,40316,308.6,72099,Moca,"{'72003':0.51,'72099':99.49}",FALSE,FALSE,America/Puerto_Rico
00677,18.3357,-67.2317,Rincon,PR,Puerto Rico,TRUE,,15272,411.2,72117,Rincón,"{'72003':0.47,'72117':99.53}",FALSE,FALSE,America/Puerto_Rico
00678,18.4327,-66.9281,Quebradillas,PR,Puerto Rico,TRUE,,27819,407.5,72115,Quebradillas,"{'72071':5.36,'72115':93.17,'72131':1.47}",FALSE,FALSE,America/Puerto_Rico
00680,18.1633,-67.362,Mayaguez,PR,Puerto Rico,TRUE,,58140,349.6,72097,Mayagüez,"{'72011':0.46,'72097':97.01,'72125':2.53}",FALSE,FALSE,America/Puerto_Rico
00682,18.2211,-67.1538,Mayaguez,PR,Puerto Rico,TRUE,,32615,874.7,72097,Mayagüez,{'72097':100},FALSE,FALSE,America/Puerto_Rico
00683,18.11,-67.0373,San German,PR,Puerto Rico,TRUE,,33772,249.8,72125,San Germán,{'72125':100},FALSE,FALSE,America/Puerto_Rico
00685,18.3362,-66.9722,San Sebastian,PR,Puerto Rico,TRUE,,42831,213.3,72131,San Sebastián,"{'72071':2,'72131':98}",FALSE,FALSE,America/Puerto_Rico
00687,18.3171,-66.4203,Morovis,PR,Puerto Rico,TRUE,,32610,323.9,72101,Morovis,{'72101':100},FALSE,FALSE,America/Puerto_Rico
00688,18.3806,-66.6242,Sabana Hoyos,PR,Puerto Rico,TRUE,,13543,164.4,72013,Arecibo,{'72013':100},FALSE,FALSE,America/Puerto_Rico
00690,18.4957,-67.0982,San Antonio,PR,Puerto Rico,TRUE,,6255,857.8,72005,Aguadilla,{'72005':100},FALSE,FALSE,America/Puerto_Rico
00692,18.4084,-66.3369,Vega Alta,PR,Puerto Rico,TRUE,,37511,541.2,72143,Vega Alta,{'72143':100},FALSE,FALSE,America/Puerto_Rico
00693,18.4213,-66.4001,Vega Baja,PR,Puerto Rico,TRUE,,61038,599.4,72145,Vega Baja,"{'72143':3.93,'72145':96.07}",FALSE,FALSE,America/Puerto_Rico
00694,18.4833,-66.3926,Vega Baja,PR,Puerto Rico,TRUE,,328,160.5,72145,Vega Baja,{'72145':100},FALSE,FALSE,America/Puerto_Rico
00698,18.0673,-66.8527,Yauco,PR,Puerto Rico,TRUE,,41782,231.7,72153,Yauco,"{'72059':0.24,'72153':99.76}",FALSE,FALSE,America/Puerto_Rico
00703,18.2484,-66.1312,Aguas Buenas,PR,Puerto Rico,TRUE,,28605,372.2,72007,Aguas Buenas,"{'72007':95.47,'72045':4.53}",FALSE,FALSE,America/Puerto_Rico
00704,17.9672,-66.2202,Aguirre,PR,Puerto Rico,TRUE,,8577,679.2,72123,Salinas,"{'72057':7.72,'72123':92.28}",FALSE,FALSE,America/Puerto_Rico
00705,18.1295,-66.2648,Aibonito,PR,Puerto Rico,TRUE,,25598,309.3,72009,Aibonito,"{'72009':99.79,'72043':0.21}",FALSE,FALSE,America/Puerto_Rico
00707,18.0181,-65.922,Maunabo,PR,Puerto Rico,TRUE,,12225,224.1,72095,Maunabo,{'72095':100},FALSE,FALSE,America/Puerto_Rico
00714,17.9985,-66.0561,Arroyo,PR,Puerto Rico,TRUE,,19566,516.8,72015,Arroyo,{'72015':100},FALSE,FALSE,America/Puerto_Rico
00715,18.0117,-66.5599,Mercedita,PR,Puerto Rico,TRUE,,3656,179.4,72113,Ponce,"{'72075':25.74,'72113':74.26}",FALSE,FALSE,America/Puerto_Rico
00716,17.9994,-66.6001,Ponce,PR,Puerto Rico,TRUE,,33779,1523.6,72113,Ponce,{'72113':100},FALSE,FALSE,America/Puerto_Rico
00717,18.0034,-66.6132,Ponce,PR,Puerto Rico,TRUE,,18457,3390.6,72113,Ponce,{'72113':100},FALSE,FALSE,America/Puerto_Rico
00718,18.2333,-65.7611,Naguabo,PR,Puerto Rico,TRUE,,26606,227.1,72103,Naguabo,{'72103':100},FALSE,FALSE,America/Puerto_Rico
00719,18.2888,-66.2534,Naranjito,PR,Puerto Rico,TRUE,,30990,427.3,72105,Naranjito,"{'72047':1.42,'72105':98.1,'72135':0.48}",FALSE,FALSE,America/Puerto_Rico
00720,18.2177,-66.4282,Orocovis,PR,Puerto Rico,TRUE,,23129,149.8,72107,Orocovis,"{'72043':0.52,'72107':99.48}",FALSE,FALSE,America/Puerto_Rico
00723,18.0324,-66.0123,Patillas,PR,Puerto Rico,TRUE,,19277,161.2,72109,Patillas,{'72109':100},FALSE,FALSE,America/Puerto_Rico
00725,18.2185,-66.0428,Caguas,PR,Puerto Rico,TRUE,,89374,817.1,72025,Caguas,"{'72007':1.51,'72025':94.56,'72035':0.43,'72061':2.76,'72127':0.6,'72129':0.14}",FALSE,FALSE,America/Puerto_Rico
00727,18.215,-66.0736,Caguas,PR,Puerto Rico,TRUE,,58382,1049,72025,Caguas,{'72025':100},FALSE,FALSE,America/Puerto_Rico
00728,18.0063,-66.6612,Ponce,PR,Puerto Rico,TRUE,,44908,1108.2,72113,Ponce,{'72113':100},FALSE,FALSE,America/Puerto_Rico
00729,18.3311,-65.8872,Canovanas,PR,Puerto Rico,TRUE,,53750,611.1,72029,Canóvanas,"{'72029':87.09,'72087':12.91}",FALSE,FALSE,America/Puerto_Rico
00730,18.0309,-66.6166,Ponce,PR,Puerto Rico,TRUE,,35742,2119.7,72113,Ponce,{'72113':100},FALSE,FALSE,America/Puerto_Rico
00731,18.0978,-66.6336,Ponce,PR,Puerto Rico,TRUE,,15524,125.9,72113,Ponce,"{'72001':2.2,'72113':97.8}",FALSE,FALSE,America/Puerto_Rico
00735,18.2537,-65.6831,Ceiba,PR,Puerto Rico,TRUE,,13730,227.4,72037,Ceiba,"{'72037':99.18,'72103':0.82}",FALSE,FALSE,America/Puerto_Rico
00736,18.1065,-66.1526,Cayey,PR,Puerto Rico,TRUE,,51532,361.1,72035,Cayey,"{'72035':92.62,'72041':7.38}",FALSE,FALSE,America/Puerto_Rico
00738,18.3183,-65.6679,Fajardo,PR,Puerto Rico,TRUE,,34922,457.4,72053,Fajardo,{'72053':100},FALSE,FALSE,America/Puerto_Rico
00739,18.1768,-66.1606,Cidra,PR,Puerto Rico,TRUE,,39678,485.1,72041,Cidra,{'72041':100},FALSE,FALSE,America/Puerto_Rico
00740,18.3323,-65.6342,Puerto Real,PR,Puerto Rico,TRUE,,2071,1876.9,72053,Fajardo,{'72053':100},FALSE,FALSE,America/Puerto_Rico
00741,18.1656,-65.7556,Punta Santiago,PR,Puerto Rico,TRUE,,4971,812.1,72069,Humacao,{'72069':100},FALSE,FALSE,America/Puerto_Rico
00745,18.3483,-65.8172,Rio Grande,PR,Puerto Rico,TRUE,,55062,411.9,72119,Río Grande,"{'72029':1.4,'72119':98.6}",FALSE,FALSE,America/Puerto_Rico
00751,18.0102,-66.2475,Salinas,PR,Puerto Rico,TRUE,,23129,190.1,72123,Salinas,{'72123':100},FALSE,FALSE,America/Puerto_Rico
00754,18.1457,-65.9761,San Lorenzo,PR,Puerto Rico,TRUE,,40828,308.9,72129,San Lorenzo,{'72129':100},FALSE,FALSE,America/Puerto_Rico
00757,17.9973,-66.3889,Santa Isabel,PR,Puerto Rico,TRUE,,23263,301.1,72133,Santa Isabel,{'72133':100},FALSE,FALSE,America/Puerto_Rico
00765,18.1285,-65.4409,Vieques,PR,Puerto Rico,TRUE,,9098,184.5,72147,Vieques,{'72147':100},FALSE,FALSE,America/Puerto_Rico
00766,18.133,-66.477,Villalba,PR,Puerto Rico,TRUE,,26488,255.4,72149,Villalba,"{'72107':1.57,'72149':98.43}",FALSE,FALSE,America/Puerto_Rico
00767,18.0705,-65.8961,Yabucoa,PR,Puerto Rico,TRUE,,38019,264.9,72151,Yabucoa,"{'72069':0.21,'72151':99.79}",FALSE,FALSE,America/Puerto_Rico
00769,18.097,-66.361,Coamo,PR,Puerto Rico,TRUE,,40248,203.1,72043,Coamo,{'72043':100},FALSE,FALSE,America/Puerto_Rico
00771,18.1875,-65.8693,Las Piedras,PR,Puerto Rico,TRUE,,38394,438.3,72085,Las Piedras,{'72085':100},FALSE,FALSE,America/Puerto_Rico
00772,18.4327,-65.9083,Loiza,PR,Puerto Rico,TRUE,,23105,608.4,72087,Loíza,{'72087':100},FALSE,FALSE,America/Puerto_Rico
00773,18.3417,-65.7274,Luquillo,PR,Puerto Rico,TRUE,,20068,318.7,72089,Luquillo,{'72089':100},FALSE,FALSE,America/Puerto_Rico
00775,18.3135,-65.2902,Culebra,PR,Puerto Rico,TRUE,,1786,65.3,72049,Culebra,{'72049':100},FALSE,FALSE,America/Puerto_Rico
00777,18.2236,-65.9088,Juncos,PR,Puerto Rico,TRUE,,40684,591,72077,Juncos,"{'72029':0.16,'72063':0.12,'72077':99.03,'72085':0.69}",FALSE,FALSE,America/Puerto_Rico
00778,18.2634,-65.9794,Gurabo,PR,Puerto Rico,TRUE,,45429,591.7,72063,Gurabo,"{'72063':99.76,'72129':0.24}",FALSE,FALSE,America/Puerto_Rico
00780,18.1042,-66.5717,Coto Laurel,PR,Puerto Rico,TRUE,,13800,265.1,72113,Ponce,"{'72075':4.46,'72113':95.54}",FALSE,FALSE,America/Puerto_Rico
00782,18.2254,-66.2222,Comerio,PR,Puerto Rico,TRUE,,19304,279.7,72045,Comerío,{'72045':100},FALSE,FALSE,America/Puerto_Rico
00783,18.3041,-66.3285,Corozal,PR,Puerto Rico,TRUE,,36557,337.3,72047,Corozal,{'72047':100},FALSE,FALSE,America/Puerto_Rico
00784,18.0054,-66.1339,Guayama,PR,Puerto Rico,TRUE,,44637,310.2,72057,Guayama,{'72057':100},FALSE,FALSE,America/Puerto_Rico
00786,18.1554,-66.2299,La Plata,PR,Puerto Rico,TRUE,,357,535.8,72009,Aibonito,{'72009':100},FALSE,FALSE,America/Puerto_Rico
00791,18.1407,-65.818,Humacao,PR,Puerto Rico,TRUE,,53417,558,72069,Humacao,{'72069':100},FALSE,FALSE,America/Puerto_Rico
00794,18.2015,-66.3087,Barranquitas,PR,Puerto Rico,TRUE,,30585,334.6,72019,Barranquitas,"{'72019':99.13,'72043':0.29,'72045':0.59}",FALSE,FALSE,America/Puerto_Rico
00795,18.0593,-66.5018,Juana Diaz,PR,Puerto Rico,TRUE,,48736,406.8,72075,Juana Díaz,{'72075':100},FALSE,FALSE,America/Puerto_Rico
00901,18.4653,-66.1048,San Juan,PR,Puerto Rico,TRUE,,7080,2792.2,72127,San Juan,{'72127':100},FALSE,FALSE,America/Puerto_Rico
00906,18.4645,-66.095,San Juan,PR,Puerto Rico,TRUE,,4,485,72127,San Juan,{'72127':100},FALSE,FALSE,America/Puerto_Rico
00907,18.4531,-66.0778,San Juan,PR,Puerto Rico,TRUE,,17458,5577.4,72127,San Juan,{'72127':100},FALSE,FALSE,America/Puerto_Rico
00909,18.4415,-66.0673,San Juan,PR,Puerto Rico,TRUE,,6230,3947,72127,San Juan,{'72127':100},FALSE,FALSE,America/Puerto_Rico
00911,18.4513,-66.0563,San Juan,PR,Puerto Rico,TRUE,,8623,6996.3,72127,San Juan,{'72127':100},FALSE,FALSE,America/Puerto_Rico
00912,18.4453,-66.0602,San Juan,PR,Puerto Rico,TRUE,,6801,7862.3,72127,San Juan,{'72127':100},FALSE,FALSE,America/Puerto_Rico
00913,18.4502,-66.0427,San Juan,PR,Puerto Rico,TRUE,,9312,11154.2,72127,San Juan,{'72127':100},FALSE,FALSE,America/Puerto_Rico
00915,18.4369,-66.0456,San Juan,PR,Puerto Rico,TRUE,,32820,9091.6,72127,San Juan,{'72127':100},FALSE,FALSE,America/Puerto_Rico
00917,18.4214,-66.0501,San Juan,PR,Puerto Rico,TRUE,,21053,6265.8,72127,San Juan,{'72127':100},FALSE,FALSE,America/Puerto_Rico
00918,18.4214,-66.0659,San Juan,PR,Puerto Rico,TRUE,,18056,3272.6,72127,San Juan,{'72127':100},FALSE,FALSE,America/Puerto_Rico
00920,18.4158,-66.0889,San Juan,PR,Puerto Rico,TRUE,,17893,2439.7,72127,San Juan,{'72127':100},FALSE,FALSE,America/Puerto_Rico
00921,18.3922,-66.0886,San Juan,PR,Puerto Rico,TRUE,,37763,5440.5,72127,San Juan,{'72127':100},FALSE,FALSE,America/Puerto_Rico
00923,18.4095,-66.0387,San Juan,PR,Puerto Rico,TRUE,,29086,5504.6,72127,San Juan,{'72127':100},FALSE,FALSE,America/Puerto_Rico
00924,18.3983,-66.0129,San Juan,PR,Puerto Rico,TRUE,,56691,4668.4,72127,San Juan,"{'72031':4.14,'72127':95.86}",FALSE,FALSE,America/Puerto_Rico
00925,18.4003,-66.0505,San Juan,PR,Puerto Rico,TRUE,,8696,7509,72127,San Juan,{'72127':100},FALSE,FALSE,America/Puerto_Rico
00926,18.3462,-66.0524,San Juan,PR,Puerto Rico,TRUE,,108862,1739.9,72127,San Juan,"{'72061':0.39,'72127':88.13,'72139':11.47}",FALSE,FALSE,America/Puerto_Rico
00927,18.3888,-66.0719,San Juan,PR,Puerto Rico,TRUE,,14936,2195.3,72127,San Juan,{'72127':100},FALSE,FALSE,America/Puerto_Rico
00934,18.4114,-66.124,Fort Buchanan,PR,Puerto Rico,TRUE,,288,148.4,72061,Guaynabo,"{'72021':42.01,'72061':57.99}",FALSE,FALSE,America/Puerto_Rico
00936,18.3955,-66.0738,San Juan,PR,Puerto Rico,TRUE,,681,1629.4,72127,San Juan,{'72127':100},FALSE,FALSE,America/Puerto_Rico
00949,18.4302,-66.2088,Toa Baja,PR,Puerto Rico,TRUE,,82278,1805.8,72137,Toa Baja,"{'72033':4.15,'72137':95.85}",FALSE,FALSE,America/Puerto_Rico
00950,18.4621,-66.2376,Toa Baja,PR,Puerto Rico,TRUE,,9,1.5,72051,Dorado,{'72051':100},FALSE,FALSE,America/Puerto_Rico
00951,18.4284,-66.2566,Toa Baja,PR,Puerto Rico,TRUE,,35,32.5,72137,Toa Baja,{'72137':100},FALSE,FALSE,America/Puerto_Rico
00952,18.4275,-66.1821,Sabana Seca,PR,Puerto Rico,TRUE,,10008,3122.6,72137,Toa Baja,{'72137':100},FALSE,FALSE,America/Puerto_Rico
00953,18.3631,-66.2475,Toa Alta,PR,Puerto Rico,TRUE,,73014,1056,72135,Toa Alta,"{'72047':0.2,'72135':98.93,'72137':0.87}",FALSE,FALSE,America/Puerto_Rico
00956,18.3208,-66.1717,Bayamon,PR,Puerto Rico,TRUE,,79304,1156.6,72021,Bayamón,"{'72021':99.8,'72135':0.2}",FALSE,FALSE,America/Puerto_Rico
00957,18.3673,-66.1887,Bayamon,PR,Puerto Rico,TRUE,,45680,3816.9,72021,Bayamón,"{'72021':97.07,'72135':2.93}",FALSE,FALSE,America/Puerto_Rico
00959,18.3849,-66.1559,Bayamon,PR,Puerto Rico,TRUE,,50560,3042.5,72021,Bayamón,"{'72021':97.64,'72061':1.88,'72135':0.36,'72137':0.12}",FALSE,FALSE,America/Puerto_Rico
00960,18.417,-66.1445,Bayamon,PR,Puerto Rico,TRUE,,1779,738.6,72021,Bayamón,{'72021':100},FALSE,FALSE,America/Puerto_Rico
00961,18.4101,-66.1654,Bayamon,PR,Puerto Rico,TRUE,,32429,2427.7,72021,Bayamón,"{'72021':98.88,'72033':1.12}",FALSE,FALSE,America/Puerto_Rico
00962,18.439,-66.1392,Catano,PR,Puerto Rico,TRUE,,22491,2276.9,72033,Cataño,{'72033':100},FALSE,FALSE,America/Puerto_Rico
00965,18.4337,-66.1148,Guaynabo,PR,Puerto Rico,TRUE,,9134,5342.2,72061,Guaynabo,"{'72033':20.48,'72061':79.52}",FALSE,FALSE,America/Puerto_Rico
00966,18.4023,-66.1176,Guaynabo,PR,Puerto Rico,TRUE,,16676,1999.6,72061,Guaynabo,"{'72021':3.12,'72061':91.02,'72127':5.86}",FALSE,FALSE,America/Puerto_Rico
00968,18.4061,-66.1012,Guaynabo,PR,Puerto Rico,TRUE,,3478,2933.4,72061,Guaynabo,{'72061':100},FALSE,FALSE,America/Puerto_Rico
00969,18.3675,-66.1085,Guaynabo,PR,Puerto Rico,TRUE,,42219,3337.9,72061,Guaynabo,"{'72021':1.6,'72061':84.94,'72127':13.45}",FALSE,FALSE,America/Puerto_Rico
00971,18.3213,-66.1181,Guaynabo,PR,Puerto Rico,TRUE,,30986,749.8,72061,Guaynabo,"{'72021':0.33,'72061':99.51,'72127':0.16}",FALSE,FALSE,America/Puerto_Rico
00976,18.3385,-65.9921,Trujillo Alto,PR,Puerto Rico,TRUE,,65136,1502.3,72139,Trujillo Alto,"{'72031':2.87,'72127':1.98,'72139':95.15}",FALSE,FALSE,America/Puerto_Rico
00979,18.4365,-66.0169,Carolina,PR,Puerto Rico,TRUE,,17030,4214.5,72031,Carolina,{'72031':100},FALSE,FALSE,America/Puerto_Rico
00982,18.4099,-65.9917,Carolina,PR,Puerto Rico,TRUE,,16428,4468.1,72031,Carolina,{'72031':100},FALSE,FALSE,America/Puerto_Rico
00983,18.4179,-65.9763,Carolina,PR,Puerto Rico,TRUE,,39234,4378.2,72031,Carolina,{'72031':100},FALSE,FALSE,America/Puerto_Rico
00985,18.4082,-65.9485,Carolina,PR,Puerto Rico,TRUE,,36553,1733.8,72031,Carolina,{'72031':100},FALSE,FALSE,America/Puerto_Rico
00987,18.3393,-65.9431,Carolina,PR,Puerto Rico,TRUE,,63661,990.5,72031,Carolina,"{'72031':99.42,'72139':0.58}",FALSE,FALSE,America/Puerto_Rico
01001,42.0626,-72.6259,Agawam,MA,Massachusetts,TRUE,,16769,565.8,25013,Hampden,{'25013':100},FALSE,FALSE,America/New_York
01002,42.3749,-72.4621,Amherst,MA,Massachusetts,TRUE,,29049,203.8,25015,Hampshire,"{'25011':0.97,'25015':99.03}",FALSE,FALSE,America/New_York
01003,42.3919,-72.5248,Amherst,MA,Massachusetts,TRUE,,10372,5629.7,25015,Hampshire,{'25015':100},FALSE,FALSE,America/New_York
01005,42.4202,-72.1061,Barre,MA,Massachusetts,TRUE,,5079,44.3,25027,Worcester,{'25027':100},FALSE,FALSE,America/New_York
01007,42.2787,-72.4003,Belchertown,MA,Massachusetts,TRUE,,14649,107.4,25015,Hampshire,{'25015':100},FALSE,FALSE,America/New_York
01008,42.1843,-72.952,Blandford,MA,Massachusetts,TRUE,,1263,9.1,25013,Hampden,{'25013':100},FALSE,FALSE,America/New_York
01009,42.2095,-72.3396,Bondsville,MA,Massachusetts,TRUE,,741,358.8,25013,Hampden,{'25013':100},FALSE,FALSE,America/New_York
01010,42.1286,-72.2062,Brimfield,MA,Massachusetts,TRUE,,3609,40.1,25013,Hampden,{'25013':100},FALSE,FALSE,America/New_York
01011,42.2966,-72.9597,Chester,MA,Massachusetts,TRUE,,1370,16.7,25013,Hampden,"{'25013':86.35,'25015':13.65}",FALSE,FALSE,America/New_York
01012,42.387,-72.8463,Chesterfield,MA,Massachusetts,TRUE,,661,19.5,25015,Hampshire,{'25015':100},FALSE,FALSE,America/New_York
01013,42.1595,-72.6083,Chicopee,MA,Massachusetts,TRUE,,23188,1591.8,25013,Hampden,{'25013':100},FALSE,FALSE,America/New_York
01020,42.1764,-72.5653,Chicopee,MA,Massachusetts,TRUE,,29668,918.6,25013,Hampden,{'25013':100},FALSE,FALSE,America/New_York
01022,42.1973,-72.5427,Chicopee,MA,Massachusetts,TRUE,,2451,198.7,25013,Hampden,{'25013':100},FALSE,FALSE,America/New_York
01026,42.4633,-72.9203,Cummington,MA,Massachusetts,TRUE,,946,15.2,25015,Hampshire,{'25015':100},FALSE,FALSE,America/New_York
01027,42.2951,-72.7431,Easthampton,MA,Massachusetts,TRUE,,17660,168.4,25015,Hampshire,{'25015':100},FALSE,FALSE,America/New_York
01028,42.0597,-72.4991,East Longmeadow,MA,Massachusetts,TRUE,,15720,466.7,25013,Hampden,{'25013':100},FALSE,FALSE,America/New_York
01029,42.1963,-73.0484,East Otis,MA,Massachusetts,TRUE,,789,19.2,25003,Berkshire,{'25003':100},FALSE,FALSE,America/New_York
01030,42.0689,-72.68,Feeding Hills,MA,Massachusetts,TRUE,,11669,379.6,25013,Hampden,{'25013':100},FALSE,FALSE,America/New_York
01031,42.3294,-72.1983,Gilbertville,MA,Massachusetts,TRUE,,1308,62.4,25027,Worcester,{'25027':100},FALSE,FALSE,America/New_York
01032,42.4503,-72.813,Goshen,MA,Massachusetts,TRUE,,570,18.7,25015,Hampshire,{'25015':100},FALSE,FALSE,America/New_York
01033,42.2608,-72.5036,Granby,MA,Massachusetts,TRUE,,6227,86.4,25015,Hampshire,{'25015':100},FALSE,FALSE,America/New_York
01034,42.0849,-72.9576,Granville,MA,Massachusetts,TRUE,,2021,10.9,25013,Hampden,{'25013':100},FALSE,FALSE,America/New_York
01035,42.3556,-72.5692,Hadley,MA,Massachusetts,TRUE,,5250,87.8,25015,Hampshire,{'25015':100},FALSE,FALSE,America/New_York
01036,42.0637,-72.4159,Hampden,MA,Massachusetts,TRUE,,5109,101.1,25013,Hampden,{'25013':100},FALSE,FALSE,America/New_York
01037,42.3701,-72.1977,Hardwick,MA,Massachusetts,TRUE,,838,22.9,25027,Worcester,{'25027':100},FALSE,FALSE,America/New_York
01038,42.3855,-72.607,Hatfield,MA,Massachusetts,TRUE,,2545,98.3,25015,Hampshire,{'25015':100},FALSE,FALSE,America/New_York
01039,42.4063,-72.6937,Haydenville,MA,Massachusetts,TRUE,,1336,39.1,25015,Hampshire,"{'25011':15.12,'25015':84.88}",FALSE,FALSE,America/New_York
01040,42.2126,-72.6411,Holyoke,MA,Massachusetts,TRUE,,39880,723.6,25013,Hampden,{'25013':100},FALSE,FALSE,America/New_York
01050,42.2879,-72.8699,Huntington,MA,Massachusetts,TRUE,,2530,25.5,25015,Hampshire,"{'25013':13.83,'25015':86.17}",FALSE,FALSE,America/New_York
01053,42.3535,-72.7116,Leeds,MA,Massachusetts,TRUE,,1685,126.8,25015,Hampshire,{'25015':100},FALSE,FALSE,America/New_York
01054,42.4736,-72.4875,Leverett,MA,Massachusetts,TRUE,,1851,31.3,25011,Franklin,{'25011':100},FALSE,FALSE,America/New_York
01056,42.1922,-72.458,Ludlow,MA,Massachusetts,TRUE,,21103,299.5,25013,Hampden,{'25013':100},FALSE,FALSE,America/New_York
01057,42.0917,-72.3243,Monson,MA,Massachusetts,TRUE,,8534,73.4,25013,Hampden,{'25013':100},FALSE,FALSE,America/New_York
01060,42.3222,-72.6313,Northampton,MA,Massachusetts,TRUE,,15284,540.4,25015,Hampshire,{'25015':100},FALSE,FALSE,America/New_York
01062,42.3219,-72.6928,Florence,MA,Massachusetts,TRUE,,11150,237.1,25015,Hampshire,{'25015':100},FALSE,FALSE,America/New_York
01063,42.319,-72.639,Northampton,MA,Massachusetts,TRUE,,430,4278.5,25015,Hampshire,{'25015':100},FALSE,FALSE,America/New_York
01066,42.4076,-72.6548,North Hatfield,MA,Massachusetts,TRUE,,64,34.8,25015,Hampshire,{'25015':100},FALSE,FALSE,America/New_York
01068,42.35,-72.0461,Oakham,MA,Massachusetts,TRUE,,1902,35.3,25027,Worcester,{'25027':100},FALSE,FALSE,America/New_York
01069,42.1881,-72.3054,Palmer,MA,Massachusetts,TRUE,,8469,116.5,25013,Hampden,{'25013':100},FALSE,FALSE,America/New_York
01070,42.5185,-72.9239,Plainfield,MA,Massachusetts,TRUE,,629,11.8,25015,Hampshire,{'25015':100},FALSE,FALSE,America/New_York
01071,42.1604,-72.86,Russell,MA,Massachusetts,TRUE,,1596,39.6,25013,Hampden,{'25013':100},FALSE,FALSE,America/New_York
01072,42.4574,-72.4184,Shutesbury,MA,Massachusetts,TRUE,,1478,28.4,25011,Franklin,{'25011':100},FALSE,FALSE,America/New_York
01073,42.2308,-72.7386,Southampton,MA,Massachusetts,TRUE,,5792,79.4,25015,Hampshire,{'25015':100},FALSE,FALSE,America/New_York
01074,42.3865,-72.0944,South Barre,MA,Massachusetts,TRUE,,319,1445.1,25027,Worcester,{'25027':100},FALSE,FALSE,America/New_York
01075,42.2567,-72.5792,South Hadley,MA,Massachusetts,TRUE,,17527,381.9,25015,Hampshire,{'25015':100},FALSE,FALSE,America/New_York
01077,42.0544,-72.7785,Southwick,MA,Massachusetts,TRUE,,9502,119,25013,Hampden,{'25013':100},FALSE,FALSE,America/New_York
01079,42.1944,-72.3301,Thorndike,MA,Massachusetts,TRUE,,692,236.8,25013,Hampden,{'25013':100},FALSE,FALSE,America/New_York
01080,42.1821,-72.3657,Three Rivers,MA,Massachusetts,TRUE,,2334,521.7,25013,Hampden,{'25013':100},FALSE,FALSE,America/New_York
01081,42.0623,-72.231,Wales,MA,Massachusetts,TRUE,,1698,45.2,25013,Hampden,{'25013':100},FALSE,FALSE,America/New_York
01082,42.2948,-72.2778,Ware,MA,Massachusetts,TRUE,,10322,86.4,25015,Hampshire,"{'25015':95.64,'25027':4.36}",FALSE,FALSE,America/New_York
01083,42.2038,-72.1949,Warren,MA,Massachusetts,TRUE,,2888,70.7,25027,Worcester,{'25027':100},FALSE,FALSE,America/New_York
01084,42.3903,-72.8809,West Chesterfield,MA,Massachusetts,TRUE,,176,7.4,25015,Hampshire,{'25015':100},FALSE,FALSE,America/New_York
01085,42.1538,-72.7697,Westfield,MA,Massachusetts,TRUE,,41117,265.1,25013,Hampden,{'25013':100},FALSE,FALSE,America/New_York
01086,42.1304,-72.7941,Westfield,MA,Massachusetts,TRUE,,687,7144.9,25013,Hampden,{'25013':100},FALSE,FALSE,America/New_York
01088,42.3901,-72.6478,West Hatfield,MA,Massachusetts,TRUE,,670,49.7,25015,Hampshire,{'25015':100},FALSE,FALSE,America/New_York
01089,42.1253,-72.6502,West Springfield,MA,Massachusetts,TRUE,,28391,655.9,25013,Hampden,{'25013':100},FALSE,FALSE,America/New_York
01092,42.1997,-72.2372,West Warren,MA,Massachusetts,TRUE,,1394,80.3,25027,Worcester,{'25027':100},FALSE,FALSE,America/New_York
01093,42.4344,-72.653,Whately,MA,Massachusetts,TRUE,,325,24.9,25011,Franklin,{'25011':100},FALSE,FALSE,America/New_York
01094,42.3595,-72.1385,Wheelwright,MA,Massachusetts,TRUE,,351,119.3,25027,Worcester,{'25027':100},FALSE,FALSE,America/New_York
01095,42.1277,-72.43,Wilbraham,MA,Massachusetts,TRUE,,14319,244.5,25013,Hampden,{'25013':100},FALSE,FALSE,America/New_York
01096,42.4042,-72.7682,Williamsburg,MA,Massachusetts,TRUE,,2217,27,25015,Hampshire,{'25015':100},FALSE,FALSE,America/New_York
01097,42.1768,-72.8327,Woronoco,MA,Massachusetts,TRUE,,111,25.1,25013,Hampden,{'25013':100},FALSE,FALSE,America/New_York
01098,42.3946,-72.9424,Worthington,MA,Massachusetts,TRUE,,1101,13.6,25015,Hampshire,{'25015':100},FALSE,FALSE,America/New_York
01103,42.104,-72.5921,Springfield,MA,Massachusetts,TRUE,,2479,2080,25013,Hampden,{'25013':100},FALSE,FALSE,America/New_York
01104,42.134,-72.5668,Springfield,MA,Massachusetts,TRUE,,22865,1692.5,25013,Hampden,{'25013':100},FALSE,FALSE,America/New_York
01105,42.0992,-72.579,Springfield,MA,Massachusetts,TRUE,,12350,3836.5,25013,Hampden,{'25013':100},FALSE,FALSE,America/New_York
01106,42.0479,-72.5718,Longmeadow,MA,Massachusetts,TRUE,,16021,665,25013,Hampden,{'25013':100},FALSE,FALSE,America/New_York
01107,42.1213,-72.6055,Springfield,MA,Massachusetts,TRUE,,11611,2974.3,25013,Hampden,{'25013':100},FALSE,FALSE,America/New_York
01108,42.0805,-72.5599,Springfield,MA,Massachusetts,TRUE,,26688,2767.5,25013,Hampden,{'25013':100},FALSE,FALSE,America/New_York
01109,42.1184,-72.5488,Springfield,MA,Massachusetts,TRUE,,30250,2146.2,25013,Hampden,{'25013':100},FALSE,FALSE,America/New_York
01118,42.0948,-72.5253,Springfield,MA,Massachusetts,TRUE,,14071,1511,25013,Hampden,{'25013':100},FALSE,FALSE,America/New_York
01119,42.1245,-72.5112,Springfield,MA,Massachusetts,TRUE,,14152,1539.2,25013,Hampden,{'25013':100},FALSE,FALSE,America/New_York
01128,42.0949,-72.4881,Springfield,MA,Massachusetts,TRUE,,2631,909.5,25013,Hampden,{'25013':100},FALSE,FALSE,America/New_York
01129,42.121,-72.4878,Springfield,MA,Massachusetts,TRUE,,7019,791.5,25013,Hampden,{'25013':100},FALSE,FALSE,America/New_York
01151,42.1529,-72.5088,Indian Orchard,MA,Massachusetts,TRUE,,8698,1417.9,25013,Hampden,{'25013':100},FALSE,FALSE,America/New_York
01199,42.1207,-72.6045,Springfield,MA,Massachusetts,TRUE,,0,0,25013,Hampden,{'25013':0},FALSE,FALSE,America/New_York
01201,42.4499,-73.2765,Pittsfield,MA,Massachusetts,TRUE,,46504,339.3,25003,Berkshire,{'25003':100},FALSE,FALSE,America/New_York
01220,42.6237,-73.1172,Adams,MA,Massachusetts,TRUE,,8603,135,25003,Berkshire,{'25003':100},FALSE,FALSE,America/New_York
01222,42.059,-73.3208,Ashley Falls,MA,Massachusetts,TRUE,,829,96.8,25003,Berkshire,{'25003':100},FALSE,FALSE,America/New_York
01223,42.3118,-73.0995,Becket,MA,Massachusetts,TRUE,,2314,12.8,25003,Berkshire,{'25003':100},FALSE,FALSE,America/New_York
01224,42.5066,-73.1975,Berkshire,MA,Massachusetts,TRUE,,182,252.6,25003,Berkshire,{'25003':100},FALSE,FALSE,America/New_York
01225,42.5627,-73.1548,Cheshire,MA,Massachusetts,TRUE,,3117,47.9,25003,Berkshire,{'25003':100},FALSE,FALSE,America/New_York
01226,42.4817,-73.1399,Dalton,MA,Massachusetts,TRUE,,6945,101.7,25003,Berkshire,{'25003':100},FALSE,FALSE,America/New_York
01229,42.2779,-73.3322,Glendale,MA,Massachusetts,TRUE,,95,50.1,25003,Berkshire,{'25003':100},FALSE,FALSE,America/New_York
01230,42.1847,-73.3437,Great Barrington,MA,Massachusetts,TRUE,,8430,35.6,25003,Berkshire,{'25003':100},FALSE,FALSE,America/New_York
01235,42.4298,-73.0724,Hinsdale,MA,Massachusetts,TRUE,,2766,23.4,25003,Berkshire,{'25003':100},FALSE,FALSE,America/New_York
01236,42.2666,-73.3767,Housatonic,MA,Massachusetts,TRUE,,1509,121.3,25003,Berkshire,{'25003':100},FALSE,FALSE,America/New_York
01237,42.5497,-73.2626,Lanesborough,MA,Massachusetts,TRUE,,2496,15.6,25003,Berkshire,{'25003':100},FALSE,FALSE,America/New_York
01238,42.2952,-73.2289,Lee,MA,Massachusetts,TRUE,,6047,67,25003,Berkshire,{'25003':100},FALSE,FALSE,America/New_York
01240,42.3721,-73.2764,Lenox,MA,Massachusetts,TRUE,,4534,81.9,25003,Berkshire,{'25003':100},FALSE,FALSE,America/New_York
01242,42.3333,-73.2492,Lenox Dale,MA,Massachusetts,TRUE,,476,369.4,25003,Berkshire,{'25003':100},FALSE,FALSE,America/New_York
01243,42.3515,-73.0232,Middlefield,MA,Massachusetts,TRUE,,334,6.9,25015,Hampshire,{'25015':100},FALSE,FALSE,America/New_York
01244,42.1161,-73.2627,Mill River,MA,Massachusetts,TRUE,,151,23.8,25003,Berkshire,{'25003':100},FALSE,FALSE,America/New_York
01245,42.1881,-73.2189,Monterey,MA,Massachusetts,TRUE,,985,13.6,25003,Berkshire,{'25003':100},FALSE,FALSE,America/New_York
01247,42.6955,-73.0799,North Adams,MA,Massachusetts,TRUE,,16087,118.3,25003,Berkshire,{'25003':100},FALSE,FALSE,America/New_York
01253,42.2118,-73.1161,Otis,MA,Massachusetts,TRUE,,731,15.5,25003,Berkshire,{'25003':100},FALSE,FALSE,America/New_York
01254,42.3798,-73.3655,Richmond,MA,Massachusetts,TRUE,,972,25.8,25003,Berkshire,{'25003':100},FALSE,FALSE,America/New_York
01255,42.1083,-73.1229,Sandisfield,MA,Massachusetts,TRUE,,915,6.8,25003,Berkshire,{'25003':100},FALSE,FALSE,America/New_York
01256,42.5963,-73.0196,Savoy,MA,Massachusetts,TRUE,,692,7.5,25003,Berkshire,{'25003':100},FALSE,FALSE,America/New_York
01257,42.097,-73.3689,Sheffield,MA,Massachusetts,TRUE,,2121,22.6,25003,Berkshire,{'25003':100},FALSE,FALSE,America/New_York
01258,42.1026,-73.4617,South Egremont,MA,Massachusetts,TRUE,,374,5.6,25003,Berkshire,{'25003':100},FALSE,FALSE,America/New_York
01259,42.0755,-73.2357,Southfield,MA,Massachusetts,TRUE,,635,9.7,25003,Berkshire,{'25003':100},FALSE,FALSE,America/New_York
01260,42.2959,-73.3452,South Lee,MA,Massachusetts,TRUE,,240,36.9,25003,Berkshire,{'25003':100},FALSE,FALSE,America/New_York
01262,42.2935,-73.3177,Stockbridge,MA,Massachusetts,TRUE,,1238,39.7,25003,Berkshire,{'25003':100},FALSE,FALSE,America/New_York
01264,42.2341,-73.199,Tyringham,MA,Massachusetts,TRUE,,137,4.7,25003,Berkshire,{'25003':100},FALSE,FALSE,America/New_York
01266,42.308,-73.3841,West Stockbridge,MA,Massachusetts,TRUE,,1463,21.7,25003,Berkshire,{'25003':100},FALSE,FALSE,America/New_York
01267,42.672,-73.239,Williamstown,MA,Massachusetts,TRUE,,7989,56.5,25003,Berkshire,{'25003':100},FALSE,FALSE,America/New_York
01270,42.5149,-73.0412,Windsor,MA,Massachusetts,TRUE,,778,9.4,25003,Berkshire,{'25003':100},FALSE,FALSE,America/New_York
01301,42.624,-72.604,Greenfield,MA,Massachusetts,TRUE,,17700,268.1,25011,Franklin,{'25011':100},FALSE,FALSE,America/New_York
01330,42.5138,-72.8139,Ashfield,MA,Massachusetts,TRUE,,1506,17.4,25011,Franklin,{'25011':100},FALSE,FALSE,America/New_York
01331,42.5673,-72.1829,Athol,MA,Massachusetts,TRUE,,13263,96.2,25027,Worcester,{'25027':100},FALSE,FALSE,America/New_York
01337,42.6951,-72.5772,Bernardston,MA,Massachusetts,TRUE,,2596,26.9,25011,Franklin,{'25011':100},FALSE,FALSE,America/New_York
01338,42.5736,-72.8214,Buckland,MA,Massachusetts,TRUE,,187,20.9,25011,Franklin,{'25011':100},FALSE,FALSE,America/New_York
01339,42.608,-72.8901,Charlemont,MA,Massachusetts,TRUE,,1438,10.1,25011,Franklin,{'25011':100},FALSE,FALSE,America/New_York
01340,42.6833,-72.7185,Colrain,MA,Massachusetts,TRUE,,1701,14.9,25011,Franklin,{'25011':100},FALSE,FALSE,America/New_York
01341,42.5045,-72.7051,Conway,MA,Massachusetts,TRUE,,1833,19.8,25011,Franklin,{'25011':100},FALSE,FALSE,America/New_York
01342,42.5445,-72.6059,Deerfield,MA,Massachusetts,TRUE,,1492,32.3,25011,Franklin,{'25011':100},FALSE,FALSE,America/New_York
01343,42.6544,-72.9811,Drury,MA,Massachusetts,TRUE,,75,5.9,25003,Berkshire,{'25003':100},FALSE,FALSE,America/New_York
01344,42.6078,-72.4288,Erving,MA,Massachusetts,TRUE,,1498,42.4,25011,Franklin,{'25011':100},FALSE,FALSE,America/New_York
01346,42.6889,-72.8175,Heath,MA,Massachusetts,TRUE,,533,9.8,25011,Franklin,{'25011':100},FALSE,FALSE,America/New_York
01347,42.5614,-72.517,Lake Pleasant,MA,Massachusetts,TRUE,,166,111,25011,Franklin,{'25011':100},FALSE,FALSE,America/New_York
01349,42.5727,-72.4833,Millers Falls,MA,Massachusetts,TRUE,,1091,54.8,25011,Franklin,{'25011':100},FALSE,FALSE,America/New_York
01350,42.7226,-72.9824,Monroe Bridge,MA,Massachusetts,TRUE,,121,4.4,25011,Franklin,{'25011':100},FALSE,FALSE,America/New_York
01351,42.5429,-72.5191,Montague,MA,Massachusetts,TRUE,,2270,41.9,25011,Franklin,{'25011':100},FALSE,FALSE,America/New_York
01354,42.6338,-72.5111,Gill,MA,Massachusetts,TRUE,,1500,42.1,25011,Franklin,{'25011':100},FALSE,FALSE,America/New_York
01355,42.4529,-72.3305,New Salem,MA,Massachusetts,TRUE,,878,7.2,25011,Franklin,{'25011':100},FALSE,FALSE,America/New_York
01360,42.6758,-72.446,Northfield,MA,Massachusetts,TRUE,,3032,34.1,25011,Franklin,{'25011':100},FALSE,FALSE,America/New_York
01364,42.6129,-72.2924,Orange,MA,Massachusetts,TRUE,,7969,78.4,25011,Franklin,{'25011':100},FALSE,FALSE,America/New_York
01366,42.4805,-72.1878,Petersham,MA,Massachusetts,TRUE,,1277,12.2,25027,Worcester,{'25027':100},FALSE,FALSE,America/New_York
01367,42.6958,-72.9118,Rowe,MA,Massachusetts,TRUE,,522,7.6,25011,Franklin,{'25011':100},FALSE,FALSE,America/New_York
01368,42.6808,-72.186,Royalston,MA,Massachusetts,TRUE,,1261,11.6,25027,Worcester,{'25027':100},FALSE,FALSE,America/New_York
01370,42.5966,-72.7286,Shelburne Falls,MA,Massachusetts,TRUE,,4084,31.7,25011,Franklin,{'25011':100},FALSE,FALSE,America/New_York
01373,42.4729,-72.6156,South Deerfield,MA,Massachusetts,TRUE,,4600,73.5,25011,Franklin,{'25011':100},FALSE,FALSE,America/New_York
01375,42.4651,-72.5546,Sunderland,MA,Massachusetts,TRUE,,3684,100,25011,Franklin,{'25011':100},FALSE,FALSE,America/New_York
01376,42.5954,-72.5557,Turners Falls,MA,Massachusetts,TRUE,,5247,733.9,25011,Franklin,{'25011':100},FALSE,FALSE,America/New_York
01378,42.6748,-72.3458,Warwick,MA,Massachusetts,TRUE,,774,8.8,25011,Franklin,{'25011':100},FALSE,FALSE,America/New_York
01379,42.5528,-72.4025,Wendell,MA,Massachusetts,TRUE,,813,10.4,25011,Franklin,{'25011':100},FALSE,FALSE,America/New_York
01420,42.5858,-71.8166,Fitchburg,MA,Massachusetts,TRUE,,40337,513.7,25027,Worcester,{'25027':100},FALSE,FALSE,America/New_York
01430,42.6602,-71.9237,Ashburnham,MA,Massachusetts,TRUE,,6089,63.6,25027,Worcester,{'25027':100},FALSE,FALSE,America/New_York
01431,42.6765,-71.8232,Ashby,MA,Massachusetts,TRUE,,3074,50.1,25017,Middlesex,{'25017':100},FALSE,FALSE,America/New_York
01432,42.5647,-71.5714,Ayer,MA,Massachusetts,TRUE,,7089,324.2,25017,Middlesex,{'25017':100},FALSE,FALSE,America/New_York
01434,42.5385,-71.6115,Devens,MA,Massachusetts,TRUE,,1795,131.2,25027,Worcester,"{'25017':18.83,'25027':81.17}",FALSE,FALSE,America/New_York
01436,42.6055,-72.0885,Baldwinville,MA,Massachusetts,TRUE,,3336,134.2,25027,Worcester,{'25027':100},FALSE,FALSE,America/New_York
01438,42.5618,-72.0317,East Templeton,MA,Massachusetts,TRUE,,559,398.3,25027,Worcester,{'25027':100},FALSE,FALSE,America/New_York
01440,42.5874,-71.9865,Gardner,MA,Massachusetts,TRUE,,20347,326.8,25027,Worcester,{'25027':100},FALSE,FALSE,America/New_York
01450,42.6137,-71.5614,Groton,MA,Massachusetts,TRUE,,10646,125.5,25017,Middlesex,{'25017':100},FALSE,FALSE,America/New_York
01451,42.5012,-71.5738,Harvard,MA,Massachusetts,TRUE,,4747,95.8,25027,Worcester,{'25027':100},FALSE,FALSE,America/New_York
01452,42.4838,-72.0051,Hubbardston,MA,Massachusetts,TRUE,,4382,41.2,25027,Worcester,{'25027':100},FALSE,FALSE,America/New_York
01453,42.5186,-71.7614,Leominster,MA,Massachusetts,TRUE,,40883,554.5,25027,Worcester,{'25027':100},FALSE,FALSE,America/New_York
01460,42.535,-71.4891,Littleton,MA,Massachusetts,TRUE,,8924,208.5,25017,Middlesex,{'25017':100},FALSE,FALSE,America/New_York
01462,42.5897,-71.7199,Lunenburg,MA,Massachusetts,TRUE,,10086,147.4,25027,Worcester,{'25027':100},FALSE,FALSE,America/New_York
01463,42.6713,-71.6043,Pepperell,MA,Massachusetts,TRUE,,11497,196.4,25017,Middlesex,{'25017':100},FALSE,FALSE,America/New_York
01464,42.5734,-71.6484,Shirley,MA,Massachusetts,TRUE,,7211,185.4,25017,Middlesex,{'25017':100},FALSE,FALSE,America/New_York
01467,42.4878,-71.6173,Still River,MA,Massachusetts,TRUE,,316,64.4,25027,Worcester,{'25027':100},FALSE,FALSE,America/New_York
01468,42.5521,-72.0689,Templeton,MA,Massachusetts,TRUE,,4021,72.5,25027,Worcester,{'25027':100},FALSE,FALSE,America/New_York
01469,42.6667,-71.694,Townsend,MA,Massachusetts,TRUE,,6801,114.8,25017,Middlesex,{'25017':100},FALSE,FALSE,America/New_York
01473,42.5512,-71.9026,Westminster,MA,Massachusetts,TRUE,,7277,79.3,25027,Worcester,{'25027':100},FALSE,FALSE,America/New_York
01474,42.6678,-71.7522,West Townsend,MA,Massachusetts,TRUE,,2125,82.7,25017,Middlesex,{'25017':100},FALSE,FALSE,America/New_York
01475,42.6667,-72.049,Winchendon,MA,Massachusetts,TRUE,,10270,92.5,25027,Worcester,{'25027':100},FALSE,FALSE,America/New_York
01501,42.1972,-71.8453,Auburn,MA,Massachusetts,TRUE,,16075,401.5,25027,Worcester,{'25027':100},FALSE,FALSE,America/New_York
01503,42.3838,-71.6355,Berlin,MA,Massachusetts,TRUE,,2866,85.3,25027,Worcester,{'25027':100},FALSE,FALSE,America/New_York
01504,42.0399,-71.5311,Blackstone,MA,Massachusetts,TRUE,,9026,314.7,25027,Worcester,{'25027':100},FALSE,FALSE,America/New_York
01505,42.3563,-71.7212,Boylston,MA,Massachusetts,TRUE,,4355,104.7,25027,Worcester,{'25027':100},FALSE,FALSE,America/New_York
01506,42.1936,-72.1045,Brookfield,MA,Massachusetts,TRUE,,3390,84.2,25027,Worcester,{'25027':100},FALSE,FALSE,America/New_York
01507,42.1351,-71.968,Charlton,MA,Massachusetts,TRUE,,12981,118.8,25027,Worcester,{'25027':100},FALSE,FALSE,America/New_York
01510,42.4119,-71.6888,Clinton,MA,Massachusetts,TRUE,,13606,929,25027,Worcester,{'25027':100},FALSE,FALSE,America/New_York
01515,42.2032,-72.0467,East Brookfield,MA,Massachusetts,TRUE,,2183,85.5,25027,Worcester,{'25027':100},FALSE,FALSE,America/New_York
01516,42.0528,-71.7509,Douglas,MA,Massachusetts,TRUE,,8500,89.3,25027,Worcester,{'25027':100},FALSE,FALSE,America/New_York
01518,42.1235,-72.1186,Fiskdale,MA,Massachusetts,TRUE,,2974,129.4,25027,Worcester,{'25027':100},FALSE,FALSE,America/New_York
01519,42.201,-71.6801,Grafton,MA,Massachusetts,TRUE,,6595,233.4,25027,Worcester,{'25027':100},FALSE,FALSE,America/New_York
01520,42.3354,-71.8528,Holden,MA,Massachusetts,TRUE,,13997,298.9,25027,Worcester,{'25027':100},FALSE,FALSE,America/New_York
01521,42.0601,-72.166,Holland,MA,Massachusetts,TRUE,,2481,77.9,25013,Hampden,{'25013':100},FALSE,FALSE,America/New_York
01522,42.3814,-71.8691,Jefferson,MA,Massachusetts,TRUE,,3310,78,25027,Worcester,{'25027':100},FALSE,FALSE,America/New_York
01523,42.4797,-71.6785,Lancaster,MA,Massachusetts,TRUE,,7582,116.2,25027,Worcester,{'25027':100},FALSE,FALSE,America/New_York
01524,42.2492,-71.9198,Leicester,MA,Massachusetts,TRUE,,6696,161.8,25027,Worcester,{'25027':100},FALSE,FALSE,America/New_York
01525,42.1068,-71.6324,Linwood,MA,Massachusetts,TRUE,,290,249.5,25027,Worcester,{'25027':100},FALSE,FALSE,America/New_York
01527,42.1922,-71.7742,Millbury,MA,Massachusetts,TRUE,,13246,328.5,25027,Worcester,{'25027':100},FALSE,FALSE,America/New_York
01529,42.039,-71.5775,Millville,MA,Massachusetts,TRUE,,3190,251.1,25027,Worcester,{'25027':100},FALSE,FALSE,America/New_York
01531,42.3193,-72.128,New Braintree,MA,Massachusetts,TRUE,,999,18.6,25027,Worcester,{'25027':100},FALSE,FALSE,America/New_York
01532,42.3231,-71.6462,Northborough,MA,Massachusetts,TRUE,,14155,295.8,25027,Worcester,{'25027':100},FALSE,FALSE,America/New_York
01534,42.1404,-71.6429,Northbridge,MA,Massachusetts,TRUE,,5631,248.3,25027,Worcester,{'25027':100},FALSE,FALSE,America/New_York
01535,42.2695,-72.0779,North Brookfield,MA,Massachusetts,TRUE,,4680,85,25027,Worcester,{'25027':100},FALSE,FALSE,America/New_York
01536,42.2324,-71.691,North Grafton,MA,Massachusetts,TRUE,,6888,318.9,25027,Worcester,{'25027':100},FALSE,FALSE,America/New_York
01537,42.1616,-71.8915,North Oxford,MA,Massachusetts,TRUE,,2248,124.3,25027,Worcester,{'25027':100},FALSE,FALSE,America/New_York
01540,42.1163,-71.8573,Oxford,MA,Massachusetts,TRUE,,11291,225.2,25027,Worcester,{'25027':100},FALSE,FALSE,America/New_York
01541,42.4565,-71.8813,Princeton,MA,Massachusetts,TRUE,,3413,37.2,25027,Worcester,{'25027':100},FALSE,FALSE,America/New_York
01542,42.2019,-71.9108,Rochdale,MA,Massachusetts,TRUE,,2202,211.2,25027,Worcester,{'25027':100},FALSE,FALSE,America/New_York
01543,42.3848,-71.9673,Rutland,MA,Massachusetts,TRUE,,7973,87.7,25027,Worcester,{'25027':100},FALSE,FALSE,America/New_York
01545,42.2843,-71.7155,Shrewsbury,MA,Massachusetts,TRUE,,35299,657.2,25027,Worcester,{'25027':100},FALSE,FALSE,America/New_York
01550,42.0604,-72.0338,Southbridge,MA,Massachusetts,TRUE,,16719,318.3,25027,Worcester,{'25027':100},FALSE,FALSE,America/New_York
01560,42.175,-71.6775,South Grafton,MA,Massachusetts,TRUE,,4527,490,25027,Worcester,{'25027':100},FALSE,FALSE,America/New_York
01561,42.444,-71.6855,South Lancaster,MA,Massachusetts,TRUE,,330,1033.6,25027,Worcester,{'25027':100},FALSE,FALSE,America/New_York
01562,42.2471,-71.9919,Spencer,MA,Massachusetts,TRUE,,11688,137.5,25027,Worcester,{'25027':100},FALSE,FALSE,America/New_York
01564,42.4412,-71.773,Sterling,MA,Massachusetts,TRUE,,7808,98.4,25027,Worcester,{'25027':100},FALSE,FALSE,America/New_York
01566,42.1024,-72.0812,Sturbridge,MA,Massachusetts,TRUE,,6294,85.7,25027,Worcester,{'25027':100},FALSE,FALSE,America/New_York
01568,42.177,-71.6046,Upton,MA,Massachusetts,TRUE,,7480,134.7,25027,Worcester,{'25027':100},FALSE,FALSE,America/New_York
01569,42.0587,-71.6371,Uxbridge,MA,Massachusetts,TRUE,,13569,180.2,25027,Worcester,{'25027':100},FALSE,FALSE,America/New_York
01570,42.052,-71.8485,Webster,MA,Massachusetts,TRUE,,16767,522.9,25027,Worcester,{'25027':100},FALSE,FALSE,America/New_York
01571,42.055,-71.9352,Dudley,MA,Massachusetts,TRUE,,11390,211.3,25027,Worcester,{'25027':100},FALSE,FALSE,America/New_York
01581,42.2681,-71.614,Westborough,MA,Massachusetts,TRUE,,18272,342.7,25027,Worcester,{'25027':100},FALSE,FALSE,America/New_York
01583,42.3702,-71.785,West Boylston,MA,Massachusetts,TRUE,,7591,232.3,25027,Worcester,{'25027':100},FALSE,FALSE,America/New_York
01585,42.2415,-72.1619,West Brookfield,MA,Massachusetts,TRUE,,4554,68.8,25027,Worcester,{'25027':100},FALSE,FALSE,America/New_York
01588,42.12,-71.6695,Whitinsville,MA,Massachusetts,TRUE,,9733,436.3,25027,Worcester,{'25027':100},FALSE,FALSE,America/New_York
01590,42.134,-71.7509,Sutton,MA,Massachusetts,TRUE,,8875,107.1,25027,Worcester,{'25027':100},FALSE,FALSE,America/New_York
01602,42.2722,-71.8495,Worcester,MA,Massachusetts,TRUE,,22819,1527.7,25027,Worcester,{'25027':100},FALSE,FALSE,America/New_York
01603,42.2441,-71.8444,Worcester,MA,Massachusetts,TRUE,,19916,1703.4,25027,Worcester,{'25027':100},FALSE,FALSE,America/New_York
01604,42.2515,-71.7677,Worcester,MA,Massachusetts,TRUE,,34677,2079.2,25027,Worcester,{'25027':100},FALSE,FALSE,America/New_York
01605,42.2895,-71.7875,Worcester,MA,Massachusetts,TRUE,,26221,1794.4,25027,Worcester,{'25027':100},FALSE,FALSE,America/New_York
01606,42.3144,-71.7956,Worcester,MA,Massachusetts,TRUE,,19077,1242.1,25027,Worcester,{'25027':100},FALSE,FALSE,America/New_York
01607,42.2274,-71.7887,Worcester,MA,Massachusetts,TRUE,,8351,1018.5,25027,Worcester,{'25027':100},FALSE,FALSE,America/New_York
01608,42.2619,-71.8016,Worcester,MA,Massachusetts,TRUE,,3888,3354.3,25027,Worcester,{'25027':100},FALSE,FALSE,America/New_York
01609,42.2864,-71.829,Worcester,MA,Massachusetts,TRUE,,22421,2266.2,25027,Worcester,{'25027':100},FALSE,FALSE,America/New_York
01610,42.2467,-71.8096,Worcester,MA,Massachusetts,TRUE,,23945,4348.9,25027,Worcester,{'25027':100},FALSE,FALSE,America/New_York
01611,42.2383,-71.8772,Cherry Valley,MA,Massachusetts,TRUE,,2242,251.5,25027,Worcester,{'25027':100},FALSE,FALSE,America/New_York
01612,42.3104,-71.9308,Paxton,MA,Massachusetts,TRUE,,4845,122.1,25027,Worcester,{'25027':100},FALSE,FALSE,America/New_York
01701,42.3217,-71.4382,Framingham,MA,Massachusetts,TRUE,,31217,710.7,25017,Middlesex,{'25017':100},FALSE,FALSE,America/New_York
01702,42.2822,-71.4339,Framingham,MA,Massachusetts,TRUE,,37206,1775.3,25017,Middlesex,{'25017':100},FALSE,FALSE,America/New_York
01718,42.5197,-71.4295,Acton,MA,Massachusetts,TRUE,,469,3864.3,25017,Middlesex,{'25017':100},FALSE,FALSE,America/New_York
01719,42.4884,-71.5178,Boxborough,MA,Massachusetts,TRUE,,4996,187.5,25017,Middlesex,{'25017':100},FALSE,FALSE,America/New_York
01720,42.4842,-71.4381,Acton,MA,Massachusetts,TRUE,,21361,418.4,25017,Middlesex,{'25017':100},FALSE,FALSE,America/New_York
01721,42.2573,-71.4687,Ashland,MA,Massachusetts,TRUE,,16593,519.6,25017,Middlesex,{'25017':100},FALSE,FALSE,America/New_York
01730,42.4969,-71.2784,Bedford,MA,Massachusetts,TRUE,,13221,372.7,25017,Middlesex,{'25017':100},FALSE,FALSE,America/New_York
01731,42.4567,-71.2795,Hanscom Afb,MA,Massachusetts,TRUE,,1396,681.1,25017,Middlesex,{'25017':100},FALSE,FALSE,America/New_York
01740,42.4362,-71.6073,Bolton,MA,Massachusetts,TRUE,,4897,94.8,25027,Worcester,{'25027':100},FALSE,FALSE,America/New_York
01741,42.53,-71.3513,Carlisle,MA,Massachusetts,TRUE,,4852,122.7,25017,Middlesex,{'25017':100},FALSE,FALSE,America/New_York
01742,42.4623,-71.3643,Concord,MA,Massachusetts,TRUE,,17726,280,25017,Middlesex,{'25017':100},FALSE,FALSE,America/New_York
01745,42.2918,-71.5011,Fayville,MA,Massachusetts,TRUE,,397,384.1,25027,Worcester,{'25027':100},FALSE,FALSE,America/New_York
01746,42.1977,-71.445,Holliston,MA,Massachusetts,TRUE,,13547,280.5,25017,Middlesex,{'25017':100},FALSE,FALSE,America/New_York
01747,42.1248,-71.535,Hopedale,MA,Massachusetts,TRUE,,5911,441.4,25027,Worcester,{'25027':100},FALSE,FALSE,America/New_York
01748,42.2255,-71.5378,Hopkinton,MA,Massachusetts,TRUE,,14925,219.4,25017,Middlesex,{'25017':100},FALSE,FALSE,America/New_York
01749,42.3887,-71.5465,Hudson,MA,Massachusetts,TRUE,,19063,638.8,25017,Middlesex,{'25017':100},FALSE,FALSE,America/New_York
01752,42.3494,-71.5468,Marlborough,MA,Massachusetts,TRUE,,38499,712.4,25017,Middlesex,{'25017':100},FALSE,FALSE,America/New_York
01754,42.4264,-71.4561,Maynard,MA,Massachusetts,TRUE,,10106,748.5,25017,Middlesex,{'25017':100},FALSE,FALSE,America/New_York
01756,42.093,-71.5515,Mendon,MA,Massachusetts,TRUE,,5839,126.8,25027,Worcester,{'25027':100},FALSE,FALSE,America/New_York
01757,42.1568,-71.5191,Milford,MA,Massachusetts,TRUE,,28061,728.1,25027,Worcester,{'25027':100},FALSE,FALSE,America/New_York
01760,42.2844,-71.3498,Natick,MA,Massachusetts,TRUE,,32786,854.7,25017,Middlesex,{'25017':100},FALSE,FALSE,America/New_York
01770,42.2342,-71.3753,Sherborn,MA,Massachusetts,TRUE,,4119,100.5,25017,Middlesex,{'25017':100},FALSE,FALSE,America/New_York
01772,42.3014,-71.5304,Southborough,MA,Massachusetts,TRUE,,9370,265.7,25027,Worcester,{'25027':100},FALSE,FALSE,America/New_York
01773,42.4252,-71.3104,Lincoln,MA,Massachusetts,TRUE,,5112,144.9,25017,Middlesex,{'25017':100},FALSE,FALSE,America/New_York
01775,42.4298,-71.5114,Stow,MA,Massachusetts,TRUE,,6590,147,25017,Middlesex,{'25017':100},FALSE,FALSE,America/New_York
01776,42.3847,-71.4234,Sudbury,MA,Massachusetts,TRUE,,17659,281.3,25017,Middlesex,{'25017':100},FALSE,FALSE,America/New_York
01778,42.3583,-71.3592,Wayland,MA,Massachusetts,TRUE,,13109,332.8,25017,Middlesex,{'25017':100},FALSE,FALSE,America/New_York
01801,42.4869,-71.1543,Woburn,MA,Massachusetts,TRUE,,38903,1187,25017,Middlesex,{'25017':100},FALSE,FALSE,America/New_York
01803,42.5022,-71.2026,Burlington,MA,Massachusetts,TRUE,,24487,808.3,25017,Middlesex,{'25017':100},FALSE,FALSE,America/New_York
01810,42.6465,-71.165,Andover,MA,Massachusetts,TRUE,,33201,415.5,25009,Essex,{'25009':100},FALSE,FALSE,America/New_York
01821,42.5502,-71.2522,Billerica,MA,Massachusetts,TRUE,,30310,706.4,25017,Middlesex,{'25017':100},FALSE,FALSE,America/New_York
01824,42.5911,-71.3556,Chelmsford,MA,Massachusetts,TRUE,,24911,541.9,25017,Middlesex,{'25017':100},FALSE,FALSE,America/New_York
01826,42.6832,-71.3006,Dracut,MA,Massachusetts,TRUE,,29422,550.7,25017,Middlesex,{'25017':100},FALSE,FALSE,America/New_York
01827,42.6764,-71.5005,Dunstable,MA,Massachusetts,TRUE,,3179,74.6,25017,Middlesex,{'25017':100},FALSE,FALSE,America/New_York
01830,42.7959,-71.0531,Haverhill,MA,Massachusetts,TRUE,,25137,703.4,25009,Essex,{'25009':100},FALSE,FALSE,America/New_York
01832,42.791,-71.1313,Haverhill,MA,Massachusetts,TRUE,,22060,749.8,25009,Essex,{'25009':100},FALSE,FALSE,America/New_York
01833,42.724,-70.9821,Georgetown,MA,Massachusetts,TRUE,,8183,245.7,25009,Essex,{'25009':100},FALSE,FALSE,America/New_York
01834,42.752,-71.0148,Groveland,MA,Massachusetts,TRUE,,6459,280.7,25009,Essex,{'25009':100},FALSE,FALSE,America/New_York
01835,42.7529,-71.0859,Haverhill,MA,Massachusetts,TRUE,,13682,676.4,25009,Essex,{'25009':100},FALSE,FALSE,America/New_York
01840,42.7069,-71.1603,Lawrence,MA,Massachusetts,TRUE,,4733,3667.8,25009,Essex,{'25009':100},FALSE,FALSE,America/New_York
01841,42.7108,-71.1651,Lawrence,MA,Massachusetts,TRUE,,47225,5903,25009,Essex,{'25009':100},FALSE,FALSE,America/New_York
01843,42.6898,-71.1611,Lawrence,MA,Massachusetts,TRUE,,24425,2799,25009,Essex,{'25009':100},FALSE,FALSE,America/New_York
01844,42.734,-71.1889,Methuen,MA,Massachusetts,TRUE,,47249,821,25009,Essex,{'25009':100},FALSE,FALSE,America/New_York
01845,42.6714,-71.0866,North Andover,MA,Massachusetts,TRUE,,28352,416.1,25009,Essex,{'25009':100},FALSE,FALSE,America/New_York
01850,42.6557,-71.3029,Lowell,MA,Massachusetts,TRUE,,15237,4326.5,25017,Middlesex,{'25017':100},FALSE,FALSE,America/New_York
01851,42.6281,-71.3356,Lowell,MA,Massachusetts,TRUE,,30190,3492,25017,Middlesex,{'25017':100},FALSE,FALSE,America/New_York
01852,42.6323,-71.2953,Lowell,MA,Massachusetts,TRUE,,33508,2611.9,25017,Middlesex,{'25017':100},FALSE,FALSE,America/New_York
01854,42.6491,-71.348,Lowell,MA,Massachusetts,TRUE,,27606,2709.7,25017,Middlesex,{'25017':100},FALSE,FALSE,America/New_York
01860,42.8386,-71.0119,Merrimac,MA,Massachusetts,TRUE,,6338,289.3,25009,Essex,{'25009':100},FALSE,FALSE,America/New_York
01862,42.5749,-71.2934,North Billerica,MA,Massachusetts,TRUE,,10227,427.2,25017,Middlesex,{'25017':100},FALSE,FALSE,America/New_York
01863,42.6324,-71.3906,North Chelmsford,MA,Massachusetts,TRUE,,8891,743.1,25017,Middlesex,{'25017':100},FALSE,FALSE,America/New_York
01864,42.5815,-71.0875,North Reading,MA,Massachusetts,TRUE,,14892,437.6,25017,Middlesex,{'25017':100},FALSE,FALSE,America/New_York
01867,42.535,-71.1056,Reading,MA,Massachusetts,TRUE,,23956,930.9,25017,Middlesex,{'25017':100},FALSE,FALSE,America/New_York
01876,42.6122,-71.2275,Tewksbury,MA,Massachusetts,TRUE,,28667,541,25017,Middlesex,{'25017':100},FALSE,FALSE,America/New_York
01879,42.6664,-71.4287,Tyngsboro,MA,Massachusetts,TRUE,,11305,260.1,25017,Middlesex,{'25017':100},FALSE,FALSE,America/New_York
01880,42.5023,-71.067,Wakefield,MA,Massachusetts,TRUE,,24733,1382.5,25017,Middlesex,{'25017':100},FALSE,FALSE,America/New_York
01886,42.5864,-71.4401,Westford,MA,Massachusetts,TRUE,,21951,280.2,25017,Middlesex,{'25017':100},FALSE,FALSE,America/New_York
01887,42.561,-71.1654,Wilmington,MA,Massachusetts,TRUE,,22325,507.7,25017,Middlesex,{'25017':100},FALSE,FALSE,America/New_York
01890,42.4518,-71.1463,Winchester,MA,Massachusetts,TRUE,,21382,1368.8,25017,Middlesex,{'25017':100},FALSE,FALSE,America/New_York
01901,42.4609,-70.9465,Lynn,MA,Massachusetts,TRUE,,1689,2633.6,25009,Essex,{'25009':100},FALSE,FALSE,America/New_York
01902,42.4708,-70.9399,Lynn,MA,Massachusetts,TRUE,,45139,7252.5,25009,Essex,{'25009':100},FALSE,FALSE,America/New_York
01904,42.4915,-70.9727,Lynn,MA,Massachusetts,TRUE,,18203,1554.7,25009,Essex,{'25009':100},FALSE,FALSE,America/New_York
01905,42.4662,-70.9759,Lynn,MA,Massachusetts,TRUE,,25251,2738.9,25009,Essex,{'25009':100},FALSE,FALSE,America/New_York
01906,42.468,-71.0145,Saugus,MA,Massachusetts,TRUE,,26660,952.6,25009,Essex,{'25009':100},FALSE,FALSE,America/New_York
01907,42.4758,-70.9067,Swampscott,MA,Massachusetts,TRUE,,14027,1783.6,25009,Essex,{'25009':100},FALSE,FALSE,America/New_York
01908,42.4293,-70.927,Nahant,MA,Massachusetts,TRUE,,3410,1258.8,25009,Essex,{'25009':100},FALSE,FALSE,America/New_York
01913,42.853,-70.9446,Amesbury,MA,Massachusetts,TRUE,,16283,512.7,25009,Essex,{'25009':100},FALSE,FALSE,America/New_York
01915,42.5681,-70.8627,Beverly,MA,Massachusetts,TRUE,,39502,1010.5,25009,Essex,{'25009':100},FALSE,FALSE,America/New_York
01921,42.6815,-71.0189,Boxford,MA,Massachusetts,TRUE,,7961,130.5,25009,Essex,{'25009':100},FALSE,FALSE,America/New_York
01922,42.7587,-70.9145,Byfield,MA,Massachusetts,TRUE,,3108,125.2,25009,Essex,{'25009':100},FALSE,FALSE,America/New_York
01923,42.574,-70.9493,Danvers,MA,Massachusetts,TRUE,,26342,770.4,25009,Essex,{'25009':100},FALSE,FALSE,America/New_York
01929,42.6346,-70.7771,Essex,MA,Massachusetts,TRUE,,3504,96.8,25009,Essex,{'25009':100},FALSE,FALSE,America/New_York
01930,42.6259,-70.6897,Gloucester,MA,Massachusetts,TRUE,,28789,424.4,25009,Essex,{'25009':100},FALSE,FALSE,America/New_York
01937,42.5857,-70.9842,Hathorne,MA,Massachusetts,TRUE,,151,798,25009,Essex,{'25009':100},FALSE,FALSE,America/New_York
01938,42.6836,-70.8429,Ipswich,MA,Massachusetts,TRUE,,13175,167.2,25009,Essex,{'25009':100},FALSE,FALSE,America/New_York
01940,42.5346,-71.0375,Lynnfield,MA,Massachusetts,TRUE,,12108,443.2,25009,Essex,"{'25009':98.36,'25017':1.64}",FALSE,FALSE,America/New_York
01944,42.5815,-70.7683,Manchester,MA,Massachusetts,TRUE,,5136,214.9,25009,Essex,{'25009':100},FALSE,FALSE,America/New_York
01945,42.4991,-70.8637,Marblehead,MA,Massachusetts,TRUE,,19808,1743.7,25009,Essex,{'25009':100},FALSE,FALSE,America/New_York
01949,42.6043,-71.0165,Middleton,MA,Massachusetts,TRUE,,8987,257.9,25009,Essex,{'25009':100},FALSE,FALSE,America/New_York
01950,42.8124,-70.8879,Newburyport,MA,Massachusetts,TRUE,,17416,805.5,25009,Essex,{'25009':100},FALSE,FALSE,America/New_York
01951,42.778,-70.8498,Newbury,MA,Massachusetts,TRUE,,3558,99.8,25009,Essex,{'25009':100},FALSE,FALSE,America/New_York
01952,42.8465,-70.8616,Salisbury,MA,Massachusetts,TRUE,,8283,207.6,25009,Essex,{'25009':100},FALSE,FALSE,America/New_York
01960,42.5337,-70.9722,Peabody,MA,Massachusetts,TRUE,,50944,1229.6,25009,Essex,{'25009':100},FALSE,FALSE,America/New_York
01966,42.6543,-70.6223,Rockport,MA,Massachusetts,TRUE,,6952,383.9,25009,Essex,{'25009':100},FALSE,FALSE,America/New_York
01969,42.7212,-70.8929,Rowley,MA,Massachusetts,TRUE,,5856,129.3,25009,Essex,{'25009':100},FALSE,FALSE,America/New_York
01970,42.5126,-70.9038,Salem,MA,Massachusetts,TRUE,,41109,1957.4,25009,Essex,{'25009':100},FALSE,FALSE,America/New_York
01982,42.6267,-70.8579,South Hamilton,MA,Massachusetts,TRUE,,7764,211.3,25009,Essex,{'25009':100},FALSE,FALSE,America/New_York
01983,42.6372,-70.9426,Topsfield,MA,Massachusetts,TRUE,,6089,197.2,25009,Essex,{'25009':100},FALSE,FALSE,America/New_York
01984,42.6008,-70.8826,Wenham,MA,Massachusetts,TRUE,,4875,245.7,25009,Essex,{'25009':100},FALSE,FALSE,America/New_York
01985,42.7939,-70.9691,West Newbury,MA,Massachusetts,TRUE,,4235,121.6,25009,Essex,{'25009':100},FALSE,FALSE,America/New_York
02019,42.0777,-71.4741,Bellingham,MA,Massachusetts,TRUE,,16332,343.7,25021,Norfolk,{'25021':100},FALSE,FALSE,America/New_York
02021,42.1752,-71.1265,Canton,MA,Massachusetts,TRUE,,21561,442.9,25021,Norfolk,{'25021':100},FALSE,FALSE,America/New_York
02025,42.236,-70.819,Cohasset,MA,Massachusetts,TRUE,,7542,297.5,25021,Norfolk,{'25021':100},FALSE,FALSE,America/New_York
02026,42.2467,-71.1778,Dedham,MA,Massachusetts,TRUE,,24711,931.3,25021,Norfolk,{'25021':100},FALSE,FALSE,America/New_York
02030,42.2366,-71.2842,Dover,MA,Massachusetts,TRUE,,5589,142.7,25021,Norfolk,{'25021':100},FALSE,FALSE,America/New_York
02032,42.1549,-71.2155,East Walpole,MA,Massachusetts,TRUE,,4226,697.4,25021,Norfolk,{'25021':100},FALSE,FALSE,America/New_York
02035,42.0627,-71.2461,Foxboro,MA,Massachusetts,TRUE,,16865,328.1,25021,Norfolk,{'25021':100},FALSE,FALSE,America/New_York
02038,42.0862,-71.4113,Franklin,MA,Massachusetts,TRUE,,31635,458.6,25021,Norfolk,{'25021':100},FALSE,FALSE,America/New_York
02043,42.2168,-70.885,Hingham,MA,Massachusetts,TRUE,,22157,386.1,25023,Plymouth,{'25023':100},FALSE,FALSE,America/New_York
02045,42.2844,-70.8827,Hull,MA,Massachusetts,TRUE,,10293,1495.1,25023,Plymouth,{'25023':100},FALSE,FALSE,America/New_York
02047,42.1335,-70.6867,Humarock,MA,Massachusetts,TRUE,,180,290.6,25023,Plymouth,{'25023':100},FALSE,FALSE,America/New_York
02048,42.0163,-71.2187,Mansfield,MA,Massachusetts,TRUE,,23184,445.3,25005,Bristol,{'25005':100},FALSE,FALSE,America/New_York
02050,42.1149,-70.7147,Marshfield,MA,Massachusetts,TRUE,,25429,337.6,25023,Plymouth,{'25023':100},FALSE,FALSE,America/New_York
02052,42.1848,-71.305,Medfield,MA,Massachusetts,TRUE,,12024,322.3,25021,Norfolk,{'25021':100},FALSE,FALSE,America/New_York
02053,42.1535,-71.429,Medway,MA,Massachusetts,TRUE,,12752,426.6,25021,Norfolk,{'25021':100},FALSE,FALSE,America/New_York
02054,42.1693,-71.3625,Millis,MA,Massachusetts,TRUE,,7891,253.4,25021,Norfolk,{'25021':100},FALSE,FALSE,America/New_York
02056,42.1164,-71.3296,Norfolk,MA,Massachusetts,TRUE,,10981,285.1,25021,Norfolk,{'25021':100},FALSE,FALSE,America/New_York
02061,42.1608,-70.8177,Norwell,MA,Massachusetts,TRUE,,10506,193.7,25023,Plymouth,{'25023':100},FALSE,FALSE,America/New_York
02062,42.186,-71.1949,Norwood,MA,Massachusetts,TRUE,,28602,1066.1,25021,Norfolk,{'25021':100},FALSE,FALSE,America/New_York
02066,42.2015,-70.7618,Scituate,MA,Massachusetts,TRUE,,17656,402.7,25023,Plymouth,{'25023':100},FALSE,FALSE,America/New_York
02067,42.1081,-71.1814,Sharon,MA,Massachusetts,TRUE,,17486,297.8,25021,Norfolk,{'25021':100},FALSE,FALSE,America/New_York
02071,42.1028,-71.2721,South Walpole,MA,Massachusetts,TRUE,,1707,679.2,25021,Norfolk,{'25021':100},FALSE,FALSE,America/New_York
02072,42.1192,-71.1019,Stoughton,MA,Massachusetts,TRUE,,26999,647.8,25021,Norfolk,{'25021':100},FALSE,FALSE,America/New_York
02081,42.1465,-71.2588,Walpole,MA,Massachusetts,TRUE,,18472,398,25021,Norfolk,{'25021':100},FALSE,FALSE,America/New_York
02090,42.2202,-71.2107,Westwood,MA,Massachusetts,TRUE,,14636,518.7,25021,Norfolk,{'25021':100},FALSE,FALSE,America/New_York
02093,42.0513,-71.3552,Wrentham,MA,Massachusetts,TRUE,,10955,194.9,25021,Norfolk,{'25021':100},FALSE,FALSE,America/New_York
02108,42.3577,-71.0651,Boston,MA,Massachusetts,TRUE,,3825,10828.1,25025,Suffolk,{'25025':100},FALSE,FALSE,America/New_York
02109,42.3648,-71.053,Boston,MA,Massachusetts,TRUE,,3771,8358.3,25025,Suffolk,{'25025':100},FALSE,FALSE,America/New_York
02110,42.3583,-71.0518,Boston,MA,Massachusetts,TRUE,,1733,3632.6,25025,Suffolk,{'25025':100},FALSE,FALSE,America/New_York
02111,42.3501,-71.0591,Boston,MA,Massachusetts,TRUE,,7383,10547.8,25025,Suffolk,{'25025':100},FALSE,FALSE,America/New_York
02113,42.3653,-71.0553,Boston,MA,Massachusetts,TRUE,,6915,26621.2,25025,Suffolk,{'25025':100},FALSE,FALSE,America/New_York
02114,42.3632,-71.0673,Boston,MA,Massachusetts,TRUE,,11999,10286,25025,Suffolk,{'25025':100},FALSE,FALSE,America/New_York
02115,42.341,-71.0946,Boston,MA,Massachusetts,TRUE,,28441,15493.4,25025,Suffolk,{'25025':100},FALSE,FALSE,America/New_York
02116,42.3505,-71.0756,Boston,MA,Massachusetts,TRUE,,20628,12629.5,25025,Suffolk,{'25025':100},FALSE,FALSE,America/New_York
02118,42.3382,-71.0708,Boston,MA,Massachusetts,TRUE,,26498,9336.1,25025,Suffolk,{'25025':100},FALSE,FALSE,America/New_York
02119,42.3241,-71.0848,Roxbury,MA,Massachusetts,TRUE,,25346,6125.8,25025,Suffolk,{'25025':100},FALSE,FALSE,America/New_York
02120,42.3321,-71.0964,Roxbury Crossing,MA,Massachusetts,TRUE,,15181,9444,25025,Suffolk,{'25025':100},FALSE,FALSE,America/New_York
02121,42.3059,-71.0859,Dorchester,MA,Massachusetts,TRUE,,25978,5746.9,25025,Suffolk,{'25025':100},FALSE,FALSE,America/New_York
02122,42.3001,-71.0335,Dorchester,MA,Massachusetts,TRUE,,23479,4454.7,25025,Suffolk,{'25025':100},FALSE,FALSE,America/New_York
02124,42.2857,-71.071,Dorchester Center,MA,Massachusetts,TRUE,,47783,6143.9,25025,Suffolk,{'25025':100},FALSE,FALSE,America/New_York
02125,42.3154,-71.0559,Dorchester,MA,Massachusetts,TRUE,,33295,6028.9,25025,Suffolk,{'25025':100},FALSE,FALSE,America/New_York
02126,42.2743,-71.0938,Mattapan,MA,Massachusetts,TRUE,,25562,4740.6,25025,Suffolk,{'25025':100},FALSE,FALSE,America/New_York
02127,42.3348,-71.0393,South Boston,MA,Massachusetts,TRUE,,31799,6069.3,25025,Suffolk,{'25025':100},FALSE,FALSE,America/New_York
02128,42.3728,-71.0166,East Boston,MA,Massachusetts,TRUE,,40508,3224.2,25025,Suffolk,{'25025':100},FALSE,FALSE,America/New_York
02129,42.3798,-71.0617,Charlestown,MA,Massachusetts,TRUE,,16439,4693.1,25025,Suffolk,{'25025':100},FALSE,FALSE,America/New_York
02130,42.3099,-71.1149,Jamaica Plain,MA,Massachusetts,TRUE,,35401,4099.3,25025,Suffolk,{'25025':100},FALSE,FALSE,America/New_York
02131,42.2847,-71.1265,Roslindale,MA,Massachusetts,TRUE,,29826,4451.7,25025,Suffolk,{'25025':100},FALSE,FALSE,America/New_York
02132,42.2802,-71.1615,West Roxbury,MA,Massachusetts,TRUE,,25861,2189.1,25025,Suffolk,{'25025':100},FALSE,FALSE,America/New_York
02134,42.3578,-71.1295,Allston,MA,Massachusetts,TRUE,,21503,6259.7,25025,Suffolk,{'25025':100},FALSE,FALSE,America/New_York
02135,42.3498,-71.1539,Brighton,MA,Massachusetts,TRUE,,42780,6269,25025,Suffolk,{'25025':100},FALSE,FALSE,America/New_York
02136,42.2554,-71.1293,Hyde Park,MA,Massachusetts,TRUE,,28488,2396.5,25025,Suffolk,{'25025':100},FALSE,FALSE,America/New_York
02138,42.3801,-71.1346,Cambridge,MA,Massachusetts,TRUE,,36314,5116.3,25017,Middlesex,{'25017':100},FALSE,FALSE,America/New_York
02139,42.3625,-71.1031,Cambridge,MA,Massachusetts,TRUE,,36349,9009.3,25017,Middlesex,{'25017':100},FALSE,FALSE,America/New_York
02140,42.3933,-71.1332,Cambridge,MA,Massachusetts,TRUE,,17607,5892.7,25017,Middlesex,{'25017':100},FALSE,FALSE,America/New_York
02141,42.37,-71.0828,Cambridge,MA,Massachusetts,TRUE,,11910,7164.6,25017,Middlesex,{'25017':100},FALSE,FALSE,America/New_York
02142,42.3618,-71.082,Cambridge,MA,Massachusetts,TRUE,,3141,4368.8,25017,Middlesex,{'25017':100},FALSE,FALSE,America/New_York
02143,42.3814,-71.0968,Somerville,MA,Massachusetts,TRUE,,24514,6133,25017,Middlesex,{'25017':100},FALSE,FALSE,America/New_York
02144,42.4006,-71.1218,Somerville,MA,Massachusetts,TRUE,,23891,8525.7,25017,Middlesex,{'25017':100},FALSE,FALSE,America/New_York
02145,42.392,-71.0895,Somerville,MA,Massachusetts,TRUE,,25439,7036.8,25017,Middlesex,{'25017':100},FALSE,FALSE,America/New_York
02148,42.4305,-71.0576,Malden,MA,Massachusetts,TRUE,,59503,4554.3,25017,Middlesex,{'25017':100},FALSE,FALSE,America/New_York
02149,42.4064,-71.0545,Everett,MA,Massachusetts,TRUE,,41550,4682.6,25017,Middlesex,"{'25017':100,'25025':0}",FALSE,FALSE,America/New_York
02150,42.3959,-71.0324,Chelsea,MA,Massachusetts,TRUE,,35124,6141.9,25025,Suffolk,{'25025':100},FALSE,FALSE,America/New_York
02151,42.4182,-71.0039,Revere,MA,Massachusetts,TRUE,,51808,3412.3,25025,Suffolk,{'25025':100},FALSE,FALSE,America/New_York
02152,42.3727,-70.9779,Winthrop,MA,Massachusetts,TRUE,,17497,3425.2,25025,Suffolk,{'25025':100},FALSE,FALSE,America/New_York
02155,42.4232,-71.1088,Medford,MA,Massachusetts,TRUE,,57964,2730.4,25017,Middlesex,{'25017':100},FALSE,FALSE,America/New_York
02163,42.3663,-71.1209,Boston,MA,Massachusetts,TRUE,,2582,10057.4,25025,Suffolk,{'25025':100},FALSE,FALSE,America/New_York
02169,42.2476,-71.0032,Quincy,MA,Massachusetts,TRUE,,55055,2369.4,25021,Norfolk,{'25021':100},FALSE,FALSE,America/New_York
02170,42.2665,-71.0161,Quincy,MA,Massachusetts,TRUE,,19505,3615.6,25021,Norfolk,{'25021':100},FALSE,FALSE,America/New_York
02171,42.2882,-71.0246,Quincy,MA,Massachusetts,TRUE,,17711,2788.6,25021,Norfolk,{'25021':100},FALSE,FALSE,America/New_York
02176,42.4556,-71.0591,Melrose,MA,Massachusetts,TRUE,,26983,2226.7,25017,Middlesex,{'25017':100},FALSE,FALSE,America/New_York
02180,42.4741,-71.0972,Stoneham,MA,Massachusetts,TRUE,,21437,1375.1,25017,Middlesex,{'25017':100},FALSE,FALSE,America/New_York
02184,42.2038,-71.0022,Braintree,MA,Massachusetts,TRUE,,35744,1003.6,25021,Norfolk,{'25021':100},FALSE,FALSE,America/New_York
02186,42.2412,-71.0844,Milton,MA,Massachusetts,TRUE,,27003,801.1,25021,Norfolk,{'25021':100},FALSE,FALSE,America/New_York
02188,42.2081,-70.9575,Weymouth,MA,Massachusetts,TRUE,,14608,1516.5,25021,Norfolk,{'25021':100},FALSE,FALSE,America/New_York
02189,42.2087,-70.9316,East Weymouth,MA,Massachusetts,TRUE,,14559,1469.8,25021,Norfolk,{'25021':100},FALSE,FALSE,America/New_York
02190,42.1665,-70.9527,South Weymouth,MA,Massachusetts,TRUE,,16119,874.3,25021,Norfolk,{'25021':100},FALSE,FALSE,America/New_York
02191,42.2436,-70.9415,North Weymouth,MA,Massachusetts,TRUE,,8457,1613.5,25021,Norfolk,{'25021':100},FALSE,FALSE,America/New_York
02199,42.3475,-71.082,Boston,MA,Massachusetts,TRUE,,1146,7731.5,25025,Suffolk,{'25025':100},FALSE,FALSE,America/New_York
02203,42.3605,-71.0589,Boston,MA,Massachusetts,TRUE,,0,0,25025,Suffolk,{'25025':0},FALSE,FALSE,America/New_York
02210,42.3478,-71.039,Boston,MA,Massachusetts,TRUE,,2090,836.3,25025,Suffolk,{'25025':100},FALSE,FALSE,America/New_York
02215,42.3478,-71.103,Boston,MA,Massachusetts,TRUE,,26125,13184,25025,Suffolk,"{'25021':0,'25025':100}",FALSE,FALSE,America/New_York
02301,42.0779,-71.0422,Brockton,MA,Massachusetts,TRUE,,61025,1894.9,25023,Plymouth,{'25023':100},FALSE,FALSE,America/New_York
02302,42.088,-70.9986,Brockton,MA,Massachusetts,TRUE,,32741,1422,25023,Plymouth,{'25023':100},FALSE,FALSE,America/New_York
02322,42.1266,-71.0493,Avon,MA,Massachusetts,TRUE,,4356,392,25021,Norfolk,{'25021':100},FALSE,FALSE,America/New_York
02324,41.9728,-70.9748,Bridgewater,MA,Massachusetts,TRUE,,26563,375.4,25023,Plymouth,{'25023':100},FALSE,FALSE,America/New_York
02330,41.8739,-70.7563,Carver,MA,Massachusetts,TRUE,,11509,118.8,25023,Plymouth,{'25023':100},FALSE,FALSE,America/New_York
02332,42.0467,-70.715,Duxbury,MA,Massachusetts,TRUE,,15059,244.9,25023,Plymouth,{'25023':100},FALSE,FALSE,America/New_York
02333,42.0351,-70.9424,East Bridgewater,MA,Massachusetts,TRUE,,13794,309.5,25023,Plymouth,{'25023':100},FALSE,FALSE,America/New_York
02338,41.9914,-70.8632,Halifax,MA,Massachusetts,TRUE,,7518,181.4,25023,Plymouth,{'25023':100},FALSE,FALSE,America/New_York
02339,42.1224,-70.8565,Hanover,MA,Massachusetts,TRUE,,13879,343.3,25023,Plymouth,{'25023':100},FALSE,FALSE,America/New_York
02341,42.0558,-70.8723,Hanson,MA,Massachusetts,TRUE,,10218,262.1,25023,Plymouth,{'25023':100},FALSE,FALSE,America/New_York
02343,42.1473,-71.0048,Holbrook,MA,Massachusetts,TRUE,,10745,592.1,25021,Norfolk,{'25021':100},FALSE,FALSE,America/New_York
02346,41.8803,-70.8742,Middleboro,MA,Massachusetts,TRUE,,23106,129.5,25023,Plymouth,{'25023':100},FALSE,FALSE,America/New_York
02347,41.8313,-70.9591,Lakeville,MA,Massachusetts,TRUE,,10612,137.6,25023,Plymouth,{'25023':100},FALSE,FALSE,America/New_York
02351,42.1173,-70.9595,Abington,MA,Massachusetts,TRUE,,16029,641,25023,Plymouth,{'25023':100},FALSE,FALSE,America/New_York
02356,42.0551,-71.1206,North Easton,MA,Massachusetts,TRUE,,12564,353.9,25005,Bristol,{'25005':100},FALSE,FALSE,America/New_York
02357,42.0577,-71.0807,North Easton,MA,Massachusetts,TRUE,,1360,1091.3,25005,Bristol,{'25005':100},FALSE,FALSE,America/New_York
02359,42.0654,-70.8014,Pembroke,MA,Massachusetts,TRUE,,17828,316.1,25023,Plymouth,{'25023':100},FALSE,FALSE,America/New_York
02360,41.8786,-70.6306,Plymouth,MA,Massachusetts,TRUE,,56271,227.5,25023,Plymouth,{'25023':100},FALSE,FALSE,America/New_York
02364,41.9861,-70.7482,Kingston,MA,Massachusetts,TRUE,,12629,261.4,25023,Plymouth,{'25023':100},FALSE,FALSE,America/New_York
02366,41.8508,-70.6572,South Carver,MA,Massachusetts,TRUE,,197,80.4,25023,Plymouth,{'25023':100},FALSE,FALSE,America/New_York
02367,41.9634,-70.8097,Plympton,MA,Massachusetts,TRUE,,2820,74.2,25023,Plymouth,{'25023':100},FALSE,FALSE,America/New_York
02368,42.177,-71.0534,Randolph,MA,Massachusetts,TRUE,,32158,1232.3,25021,Norfolk,{'25021':100},FALSE,FALSE,America/New_York
02370,42.1299,-70.911,Rockland,MA,Massachusetts,TRUE,,17489,654.9,25023,Plymouth,{'25023':100},FALSE,FALSE,America/New_York
02375,42.0175,-71.1015,South Easton,MA,Massachusetts,TRUE,,9188,243.5,25005,Bristol,{'25005':100},FALSE,FALSE,America/New_York
02379,42.0214,-71.0267,West Bridgewater,MA,Massachusetts,TRUE,,6916,174.3,25023,Plymouth,{'25023':100},FALSE,FALSE,America/New_York
02382,42.08,-70.9399,Whitman,MA,Massachusetts,TRUE,,14489,806.1,25023,Plymouth,{'25023':100},FALSE,FALSE,America/New_York
02420,42.4563,-71.2167,Lexington,MA,Massachusetts,TRUE,,14052,824,25017,Middlesex,{'25017':100},FALSE,FALSE,America/New_York
02421,42.4385,-71.24,Lexington,MA,Massachusetts,TRUE,,17342,679.8,25017,Middlesex,{'25017':100},FALSE,FALSE,America/New_York
02445,42.326,-71.1339,Brookline,MA,Massachusetts,TRUE,,20679,3066.4,25021,Norfolk,{'25021':100},FALSE,FALSE,America/New_York
02446,42.3435,-71.1217,Brookline,MA,Massachusetts,TRUE,,29311,8793.4,25021,Norfolk,{'25021':100},FALSE,FALSE,America/New_York
02451,42.3982,-71.2571,Waltham,MA,Massachusetts,TRUE,,17426,1218.1,25017,Middlesex,{'25017':100},FALSE,FALSE,America/New_York
02452,42.3936,-71.2196,Waltham,MA,Massachusetts,TRUE,,14238,1486.1,25017,Middlesex,{'25017':100},FALSE,FALSE,America/New_York
02453,42.3691,-71.2403,Waltham,MA,Massachusetts,TRUE,,28968,3196.7,25017,Middlesex,{'25017':100},FALSE,FALSE,America/New_York
02457,42.2984,-71.2684,Babson Park,MA,Massachusetts,TRUE,,1432,3465.3,25021,Norfolk,{'25021':100},FALSE,FALSE,America/New_York
02458,42.3528,-71.1875,Newton,MA,Massachusetts,TRUE,,12131,2339.3,25017,Middlesex,{'25017':100},FALSE,FALSE,America/New_York
02459,42.315,-71.1917,Newton Center,MA,Massachusetts,TRUE,,19095,1473.1,25017,Middlesex,{'25017':100},FALSE,FALSE,America/New_York
02460,42.352,-71.2083,Newtonville,MA,Massachusetts,TRUE,,8742,2511.4,25017,Middlesex,{'25017':100},FALSE,FALSE,America/New_York
02461,42.3168,-71.2085,Newton Highlands,MA,Massachusetts,TRUE,,7059,1873.7,25017,Middlesex,{'25017':100},FALSE,FALSE,America/New_York
02462,42.3299,-71.2562,Newton Lower Falls,MA,Massachusetts,TRUE,,1554,1134.9,25017,Middlesex,{'25017':100},FALSE,FALSE,America/New_York
02464,42.3129,-71.2195,Newton Upper Falls,MA,Massachusetts,TRUE,,2953,2018.3,25017,Middlesex,{'25017':100},FALSE,FALSE,America/New_York
02465,42.3491,-71.2266,West Newton,MA,Massachusetts,TRUE,,11710,2015.7,25017,Middlesex,{'25017':100},FALSE,FALSE,America/New_York
02466,42.3441,-71.2481,Auburndale,MA,Massachusetts,TRUE,,8096,1745.5,25017,Middlesex,{'25017':100},FALSE,FALSE,America/New_York
02467,42.3164,-71.1612,Chestnut Hill,MA,Massachusetts,TRUE,,22491,1782.6,25021,Norfolk,"{'25017':37.9,'25021':38.86,'25025':23.24}",FALSE,FALSE,America/New_York
02468,42.3272,-71.2308,Waban,MA,Massachusetts,TRUE,,5273,1375.6,25017,Middlesex,{'25017':100},FALSE,FALSE,America/New_York
02472,42.37,-71.1773,Watertown,MA,Massachusetts,TRUE,,32014,3066.3,25017,Middlesex,{'25017':100},FALSE,FALSE,America/New_York
02474,42.4202,-71.1565,Arlington,MA,Massachusetts,TRUE,,26312,3328.2,25017,Middlesex,{'25017':100},FALSE,FALSE,America/New_York
02476,42.4162,-71.1752,Arlington,MA,Massachusetts,TRUE,,16532,3049,25017,Middlesex,{'25017':100},FALSE,FALSE,America/New_York
02478,42.396,-71.1796,Belmont,MA,Massachusetts,TRUE,,24664,2049.3,25017,Middlesex,{'25017':100},FALSE,FALSE,America/New_York
02481,42.313,-71.2744,Wellesley Hills,MA,Massachusetts,TRUE,,16244,1112,25021,Norfolk,{'25021':100},FALSE,FALSE,America/New_York
02482,42.2938,-71.2999,Wellesley,MA,Massachusetts,TRUE,,10306,945.6,25021,Norfolk,{'25021':100},FALSE,FALSE,America/New_York
02492,42.2761,-71.2437,Needham,MA,Massachusetts,TRUE,,19931,807.7,25021,Norfolk,{'25021':100},FALSE,FALSE,America/New_York
02493,42.359,-71.3001,Weston,MA,Massachusetts,TRUE,,11261,258.4,25017,Middlesex,{'25017':100},FALSE,FALSE,America/New_York
02494,42.2997,-71.232,Needham Heights,MA,Massachusetts,TRUE,,8955,1249.6,25021,Norfolk,{'25021':100},FALSE,FALSE,America/New_York
02532,41.7516,-70.5972,Buzzards Bay,MA,Massachusetts,TRUE,,12690,343.6,25001,Barnstable,"{'25001':84.5,'25023':15.5}",FALSE,FALSE,America/New_York
02534,41.6672,-70.6199,Cataumet,MA,Massachusetts,TRUE,,842,142.2,25001,Barnstable,{'25001':100},FALSE,FALSE,America/New_York
02535,41.349,-70.7463,Chilmark,MA,Massachusetts,TRUE,,1177,18.6,25007,Dukes,{'25007':100},FALSE,FALSE,America/New_York
02536,41.5969,-70.5672,East Falmouth,MA,Massachusetts,TRUE,,19583,273.1,25001,Barnstable,{'25001':100},FALSE,FALSE,America/New_York
02537,41.7295,-70.4401,East Sandwich,MA,Massachusetts,TRUE,,6293,200.9,25001,Barnstable,{'25001':100},FALSE,FALSE,America/New_York
02538,41.777,-70.6491,East Wareham,MA,Massachusetts,TRUE,,3603,306,25023,Plymouth,{'25023':100},FALSE,FALSE,America/New_York
02539,41.3799,-70.5322,Edgartown,MA,Massachusetts,TRUE,,4067,58.6,25007,Dukes,{'25007':100},FALSE,FALSE,America/New_York
02540,41.572,-70.6279,Falmouth,MA,Massachusetts,TRUE,,8221,296.2,25001,Barnstable,{'25001':100},FALSE,FALSE,America/New_York
02542,41.7026,-70.5469,Buzzards Bay,MA,Massachusetts,TRUE,,1139,14.3,25001,Barnstable,{'25001':100},FALSE,FALSE,America/New_York
02543,41.4934,-70.7311,Woods Hole,MA,Massachusetts,TRUE,,635,24.7,25001,Barnstable,"{'25001':96.38,'25007':3.62}",FALSE,FALSE,America/New_York
02553,41.7133,-70.6188,Monument Beach,MA,Massachusetts,TRUE,,226,355.3,25001,Barnstable,{'25001':100},FALSE,FALSE,America/New_York
02554,41.2854,-70.0798,Nantucket,MA,Massachusetts,TRUE,,9852,94.4,25019,Nantucket,{'25019':100},FALSE,FALSE,America/New_York
02556,41.6395,-70.6258,North Falmouth,MA,Massachusetts,TRUE,,3115,311,25001,Barnstable,{'25001':100},FALSE,FALSE,America/New_York
02557,41.4366,-70.58,Oak Bluffs,MA,Massachusetts,TRUE,,4491,240.6,25007,Dukes,{'25007':100},FALSE,FALSE,America/New_York
02558,41.7448,-70.6535,Onset,MA,Massachusetts,TRUE,,2156,677.3,25023,Plymouth,{'25023':100},FALSE,FALSE,America/New_York
02559,41.6916,-70.6151,Pocasset,MA,Massachusetts,TRUE,,3376,259,25001,Barnstable,{'25001':100},FALSE,FALSE,America/New_York
02561,41.7689,-70.5332,Sagamore,MA,Massachusetts,TRUE,,539,338.6,25001,Barnstable,{'25001':100},FALSE,FALSE,America/New_York
02562,41.7872,-70.5269,Sagamore Beach,MA,Massachusetts,TRUE,,2977,343.4,25001,Barnstable,{'25001':100},FALSE,FALSE,America/New_York
02563,41.7196,-70.478,Sandwich,MA,Massachusetts,TRUE,,10359,303,25001,Barnstable,{'25001':100},FALSE,FALSE,America/New_York
02564,41.2653,-69.9843,Siasconset,MA,Massachusetts,TRUE,,310,20.8,25019,Nantucket,{'25019':100},FALSE,FALSE,America/New_York
02568,41.4527,-70.6176,Vineyard Haven,MA,Massachusetts,TRUE,,4000,231.5,25007,Dukes,{'25007':100},FALSE,FALSE,America/New_York
02571,41.7636,-70.698,Wareham,MA,Massachusetts,TRUE,,10481,203.3,25023,Plymouth,{'25023':100},FALSE,FALSE,America/New_York
02575,41.3999,-70.6545,West Tisbury,MA,Massachusetts,TRUE,,2725,42.1,25007,Dukes,{'25007':100},FALSE,FALSE,America/New_York
02576,41.778,-70.7637,West Wareham,MA,Massachusetts,TRUE,,3754,148.4,25023,Plymouth,{'25023':100},FALSE,FALSE,America/New_York
02584,41.2588,-70.0073,Nantucket,MA,Massachusetts,TRUE,,10,57.3,25019,Nantucket,{'25019':100},FALSE,FALSE,America/New_York
02601,41.6603,-70.2968,Hyannis,MA,Massachusetts,TRUE,,14089,633,25001,Barnstable,{'25001':100},FALSE,FALSE,America/New_York
02630,41.7046,-70.3033,Barnstable,MA,Massachusetts,TRUE,,1850,178.1,25001,Barnstable,{'25001':100},FALSE,FALSE,America/New_York
02631,41.7468,-70.0694,Brewster,MA,Massachusetts,TRUE,,9679,170.1,25001,Barnstable,{'25001':100},FALSE,FALSE,America/New_York
02632,41.6606,-70.3475,Centerville,MA,Massachusetts,TRUE,,10742,566.6,25001,Barnstable,{'25001':100},FALSE,FALSE,America/New_York
02633,41.6889,-69.9722,Chatham,MA,Massachusetts,TRUE,,3884,198.5,25001,Barnstable,{'25001':100},FALSE,FALSE,America/New_York
02635,41.6237,-70.4405,Cotuit,MA,Massachusetts,TRUE,,3296,230.3,25001,Barnstable,{'25001':100},FALSE,FALSE,America/New_York
02637,41.7057,-70.2724,Cummaquid,MA,Massachusetts,TRUE,,253,139.6,25001,Barnstable,{'25001':100},FALSE,FALSE,America/New_York
02638,41.7323,-70.1936,Dennis,MA,Massachusetts,TRUE,,3207,209.8,25001,Barnstable,{'25001':100},FALSE,FALSE,America/New_York
02639,41.6664,-70.1353,Dennis Port,MA,Massachusetts,TRUE,,2875,401.2,25001,Barnstable,{'25001':100},FALSE,FALSE,America/New_York
02641,41.7506,-70.1522,East Dennis,MA,Massachusetts,TRUE,,532,100.6,25001,Barnstable,{'25001':100},FALSE,FALSE,America/New_York
02642,41.8396,-69.977,Eastham,MA,Massachusetts,TRUE,,4937,137.4,25001,Barnstable,{'25001':100},FALSE,FALSE,America/New_York
02643,41.7657,-69.9365,East Orleans,MA,Massachusetts,TRUE,,26,5.3,25001,Barnstable,{'25001':100},FALSE,FALSE,America/New_York
02644,41.6843,-70.5102,Forestdale,MA,Massachusetts,TRUE,,3955,428.7,25001,Barnstable,{'25001':100},FALSE,FALSE,America/New_York
02645,41.7042,-70.0608,Harwich,MA,Massachusetts,TRUE,,9663,224.2,25001,Barnstable,{'25001':100},FALSE,FALSE,America/New_York
02646,41.6708,-70.072,Harwich Port,MA,Massachusetts,TRUE,,1676,214.9,25001,Barnstable,{'25001':100},FALSE,FALSE,America/New_York
02647,41.6318,-70.3081,Hyannis Port,MA,Massachusetts,TRUE,,129,105.1,25001,Barnstable,{'25001':100},FALSE,FALSE,America/New_York
02648,41.6707,-70.4163,Marstons Mills,MA,Massachusetts,TRUE,,7301,303.9,25001,Barnstable,{'25001':100},FALSE,FALSE,America/New_York
02649,41.6177,-70.4905,Mashpee,MA,Massachusetts,TRUE,,14006,232.6,25001,Barnstable,{'25001':100},FALSE,FALSE,America/New_York
02650,41.7034,-69.9659,North Chatham,MA,Massachusetts,TRUE,,848,226.4,25001,Barnstable,{'25001':100},FALSE,FALSE,America/New_York
02651,41.875,-70.0035,North Eastham,MA,Massachusetts,TRUE,,16,88.1,25001,Barnstable,{'25001':100},FALSE,FALSE,America/New_York
02652,42.0441,-70.0947,North Truro,MA,Massachusetts,TRUE,,1175,56.7,25001,Barnstable,{'25001':100},FALSE,FALSE,America/New_York
02653,41.7688,-69.9739,Orleans,MA,Massachusetts,TRUE,,5911,189.5,25001,Barnstable,{'25001':100},FALSE,FALSE,America/New_York
02655,41.63,-70.3926,Osterville,MA,Massachusetts,TRUE,,3518,208,25001,Barnstable,{'25001':100},FALSE,FALSE,America/New_York
02657,42.0614,-70.1981,Provincetown,MA,Massachusetts,TRUE,,2942,117.5,25001,Barnstable,{'25001':100},FALSE,FALSE,America/New_York
02659,41.6831,-70.0223,South Chatham,MA,Massachusetts,TRUE,,1108,209.1,25001,Barnstable,{'25001':100},FALSE,FALSE,America/New_York
02660,41.7055,-70.1544,South Dennis,MA,Massachusetts,TRUE,,6261,313.6,25001,Barnstable,{'25001':100},FALSE,FALSE,America/New_York
02663,41.9067,-69.9975,South Wellfleet,MA,Massachusetts,TRUE,,173,47.3,25001,Barnstable,{'25001':100},FALSE,FALSE,America/New_York
02664,41.6746,-70.1946,South Yarmouth,MA,Massachusetts,TRUE,,9371,521.6,25001,Barnstable,{'25001':100},FALSE,FALSE,America/New_York
02666,41.9894,-70.0457,Truro,MA,Massachusetts,TRUE,,828,25.1,25001,Barnstable,{'25001':100},FALSE,FALSE,America/New_York
02667,41.9279,-70.0181,Wellfleet,MA,Massachusetts,TRUE,,2580,53.5,25001,Barnstable,{'25001':100},FALSE,FALSE,America/New_York
02668,41.7118,-70.3568,West Barnstable,MA,Massachusetts,TRUE,,3278,84,25001,Barnstable,{'25001':100},FALSE,FALSE,America/New_York
02669,41.6711,-69.9928,West Chatham,MA,Massachusetts,TRUE,,285,123,25001,Barnstable,{'25001':100},FALSE,FALSE,America/New_York
02670,41.6599,-70.1716,West Dennis,MA,Massachusetts,TRUE,,1307,241.7,25001,Barnstable,{'25001':100},FALSE,FALSE,America/New_York
02671,41.6721,-70.111,West Harwich,MA,Massachusetts,TRUE,,1023,196.2,25001,Barnstable,{'25001':100},FALSE,FALSE,America/New_York
02672,41.6356,-70.3179,West Hyannisport,MA,Massachusetts,TRUE,,180,140.6,25001,Barnstable,{'25001':100},FALSE,FALSE,America/New_York
02673,41.6573,-70.2466,West Yarmouth,MA,Massachusetts,TRUE,,8402,324.8,25001,Barnstable,{'25001':100},FALSE,FALSE,America/New_York
02675,41.7048,-70.2306,Yarmouth Port,MA,Massachusetts,TRUE,,6577,281.2,25001,Barnstable,{'25001':100},FALSE,FALSE,America/New_York
02702,41.7845,-71.0611,Assonet,MA,Massachusetts,TRUE,,4125,94.8,25005,Bristol,{'25005':100},FALSE,FALSE,America/New_York
02703,41.9311,-71.295,Attleboro,MA,Massachusetts,TRUE,,43593,627.7,25005,Bristol,{'25005':100},FALSE,FALSE,America/New_York
02713,41.4344,-70.8757,Cuttyhunk,MA,Massachusetts,TRUE,,52,4,25007,Dukes,{'25007':100},FALSE,FALSE,America/New_York
02715,41.8175,-71.1506,Dighton,MA,Massachusetts,TRUE,,3123,105.3,25005,Bristol,{'25005':100},FALSE,FALSE,America/New_York
02717,41.7587,-70.9716,East Freetown,MA,Massachusetts,TRUE,,4745,103.6,25005,Bristol,{'25005':100},FALSE,FALSE,America/New_York
02718,41.8689,-71.0116,East Taunton,MA,Massachusetts,TRUE,,6655,248.4,25005,Bristol,{'25005':100},FALSE,FALSE,America/New_York
02719,41.6395,-70.8732,Fairhaven,MA,Massachusetts,TRUE,,15873,496.9,25005,Bristol,{'25005':100},FALSE,FALSE,America/New_York
02720,41.7328,-71.1181,Fall River,MA,Massachusetts,TRUE,,30287,1075.7,25005,Bristol,{'25005':100},FALSE,FALSE,America/New_York
02721,41.6746,-71.1477,Fall River,MA,Massachusetts,TRUE,,26290,2480,25005,Bristol,{'25005':100},FALSE,FALSE,America/New_York
02723,41.6927,-71.1297,Fall River,MA,Massachusetts,TRUE,,14767,3569.7,25005,Bristol,{'25005':100},FALSE,FALSE,America/New_York
02724,41.684,-71.1794,Fall River,MA,Massachusetts,TRUE,,16908,3514.4,25005,Bristol,{'25005':100},FALSE,FALSE,America/New_York
02725,41.7125,-71.1843,Somerset,MA,Massachusetts,TRUE,,2631,428,25005,Bristol,{'25005':100},FALSE,FALSE,America/New_York
02726,41.7607,-71.1444,Somerset,MA,Massachusetts,TRUE,,15534,1085.2,25005,Bristol,{'25005':100},FALSE,FALSE,America/New_York
02738,41.7091,-70.7636,Marion,MA,Massachusetts,TRUE,,4907,135.4,25023,Plymouth,{'25023':100},FALSE,FALSE,America/New_York
02739,41.6687,-70.8171,Mattapoisett,MA,Massachusetts,TRUE,,6045,134.5,25023,Plymouth,{'25023':100},FALSE,FALSE,America/New_York
02740,41.6379,-70.9381,New Bedford,MA,Massachusetts,TRUE,,43087,2926.2,25005,Bristol,{'25005':100},FALSE,FALSE,America/New_York
02743,41.7138,-70.9012,Acushnet,MA,Massachusetts,TRUE,,10307,215.9,25005,Bristol,{'25005':100},FALSE,FALSE,America/New_York
02744,41.608,-70.9127,New Bedford,MA,Massachusetts,TRUE,,11900,3560,25005,Bristol,{'25005':100},FALSE,FALSE,America/New_York
02745,41.6989,-70.9483,New Bedford,MA,Massachusetts,TRUE,,24576,918.8,25005,Bristol,{'25005':100},FALSE,FALSE,America/New_York
02746,41.6615,-70.9416,New Bedford,MA,Massachusetts,TRUE,,15342,2799.5,25005,Bristol,{'25005':100},FALSE,FALSE,America/New_York
02747,41.6678,-71.0163,North Dartmouth,MA,Massachusetts,TRUE,,22927,181.4,25005,Bristol,{'25005':100},FALSE,FALSE,America/New_York
02748,41.5605,-70.979,South Dartmouth,MA,Massachusetts,TRUE,,11442,196.4,25005,Bristol,{'25005':100},FALSE,FALSE,America/New_York
02760,41.97,-71.3359,North Attleboro,MA,Massachusetts,TRUE,,26739,574.5,25005,Bristol,{'25005':100},FALSE,FALSE,America/New_York
02762,42.0141,-71.3364,Plainville,MA,Massachusetts,TRUE,,8264,290.1,25021,Norfolk,{'25021':100},FALSE,FALSE,America/New_York
02763,41.9667,-71.3075,Attleboro Falls,MA,Massachusetts,TRUE,,1973,844.4,25005,Bristol,{'25005':100},FALSE,FALSE,America/New_York
02764,41.8566,-71.1605,North Dighton,MA,Massachusetts,TRUE,,3988,145.4,25005,Bristol,{'25005':100},FALSE,FALSE,America/New_York
02766,41.964,-71.1842,Norton,MA,Massachusetts,TRUE,,19031,264.2,25005,Bristol,{'25005':100},FALSE,FALSE,America/New_York
02767,41.9371,-71.0511,Raynham,MA,Massachusetts,TRUE,,13566,220,25005,Bristol,{'25005':100},FALSE,FALSE,America/New_York
02769,41.8439,-71.2456,Rehoboth,MA,Massachusetts,TRUE,,11608,95.5,25005,Bristol,{'25005':100},FALSE,FALSE,America/New_York
02770,41.7585,-70.8409,Rochester,MA,Massachusetts,TRUE,,5093,61.1,25023,Plymouth,{'25023':100},FALSE,FALSE,America/New_York
02771,41.8379,-71.3174,Seekonk,MA,Massachusetts,TRUE,,13708,288.1,25005,Bristol,{'25005':100},FALSE,FALSE,America/New_York
02777,41.757,-71.2121,Swansea,MA,Massachusetts,TRUE,,15840,269.7,25005,Bristol,{'25005':100},FALSE,FALSE,America/New_York
02779,41.8349,-71.0754,Berkley,MA,Massachusetts,TRUE,,6411,149.9,25005,Bristol,{'25005':100},FALSE,FALSE,America/New_York
02780,41.9076,-71.1196,Taunton,MA,Massachusetts,TRUE,,49036,573.1,25005,Bristol,{'25005':100},FALSE,FALSE,America/New_York
02790,41.5999,-71.0832,Westport,MA,Massachusetts,TRUE,,15717,113,25005,Bristol,{'25005':100},FALSE,FALSE,America/New_York
02791,41.528,-71.078,Westport Point,MA,Massachusetts,TRUE,,246,90.1,25005,Bristol,{'25005':100},FALSE,FALSE,America/New_York
02802,41.9518,-71.4551,Albion,RI,Rhode Island,TRUE,,786,1552,44007,Providence,{'44007':100},FALSE,FALSE,America/New_York
02804,41.4319,-71.7724,Ashaway,RI,Rhode Island,TRUE,,2607,99.7,44009,Washington,{'44009':100},FALSE,FALSE,America/New_York
02806,41.7444,-71.3146,Barrington,RI,Rhode Island,TRUE,,16310,766.6,44001,Bristol,{'44001':100},FALSE,FALSE,America/New_York
02807,41.1776,-71.5785,Block Island,RI,Rhode Island,TRUE,,1051,44.7,44009,Washington,{'44009':100},FALSE,FALSE,America/New_York
02808,41.4086,-71.7487,Bradford,RI,Rhode Island,TRUE,,2401,116.4,44009,Washington,{'44009':100},FALSE,FALSE,America/New_York
02809,41.6827,-71.2694,Bristol,RI,Rhode Island,TRUE,,22938,902.3,44001,Bristol,{'44001':100},FALSE,FALSE,America/New_York
02812,41.4777,-71.6544,Carolina,RI,Rhode Island,TRUE,,1497,87,44009,Washington,{'44009':100},FALSE,FALSE,America/New_York
02813,41.3973,-71.6702,Charlestown,RI,Rhode Island,TRUE,,7831,82.9,44009,Washington,{'44009':100},FALSE,FALSE,America/New_York
02814,41.8988,-71.6977,Chepachet,RI,Rhode Island,TRUE,,7496,64.6,44007,Providence,{'44007':100},FALSE,FALSE,America/New_York
02815,41.773,-71.6583,Clayville,RI,Rhode Island,TRUE,,278,25.7,44007,Providence,{'44007':100},FALSE,FALSE,America/New_York
02816,41.6909,-71.6198,Coventry,RI,Rhode Island,TRUE,,32611,332.6,44003,Kent,"{'44003':99.98,'44007':0.02}",FALSE,FALSE,America/New_York
02817,41.6292,-71.667,West Greenwich,RI,Rhode Island,TRUE,,6135,47.1,44003,Kent,{'44003':100},FALSE,FALSE,America/New_York
02818,41.6431,-71.493,East Greenwich,RI,Rhode Island,TRUE,,18082,320,44003,Kent,{'44003':100},FALSE,FALSE,America/New_York
02822,41.5673,-71.633,Exeter,RI,Rhode Island,TRUE,,6111,42.2,44009,Washington,{'44009':100},FALSE,FALSE,America/New_York
02825,41.7811,-71.7262,Foster,RI,Rhode Island,TRUE,,5377,38.4,44007,Providence,{'44007':100},FALSE,FALSE,America/New_York
02826,41.974,-71.6371,Glendale,RI,Rhode Island,TRUE,,791,122.3,44007,Providence,{'44007':100},FALSE,FALSE,America/New_York
02827,41.6978,-71.7395,Greene,RI,Rhode Island,TRUE,,2172,39.8,44003,Kent,{'44003':100},FALSE,FALSE,America/New_York
02828,41.8779,-71.5595,Greenville,RI,Rhode Island,TRUE,,7704,615.9,44007,Providence,{'44007':100},FALSE,FALSE,America/New_York
02830,41.9821,-71.6496,Harrisville,RI,Rhode Island,TRUE,,5976,119,44007,Providence,{'44007':100},FALSE,FALSE,America/New_York
02831,41.7526,-71.5891,Hope,RI,Rhode Island,TRUE,,3515,141.1,44007,Providence,"{'44003':3.87,'44007':96.13}",FALSE,FALSE,America/New_York
02832,41.5083,-71.726,Hope Valley,RI,Rhode Island,TRUE,,4608,79.8,44009,Washington,{'44009':100},FALSE,FALSE,America/New_York
02833,41.4874,-71.7783,Hopkinton,RI,Rhode Island,TRUE,,784,42.8,44009,Washington,{'44009':100},FALSE,FALSE,America/New_York
02835,41.515,-71.3771,Jamestown,RI,Rhode Island,TRUE,,5405,220.9,44005,Newport,{'44005':100},FALSE,FALSE,America/New_York
02836,41.4523,-71.6205,Kenyon,RI,Rhode Island,TRUE,,136,170.8,44009,Washington,{'44009':100},FALSE,FALSE,America/New_York
02837,41.5152,-71.1646,Little Compton,RI,Rhode Island,TRUE,,3492,65.7,44005,Newport,{'44005':100},FALSE,FALSE,America/New_York
02838,41.9651,-71.4762,Manville,RI,Rhode Island,TRUE,,3400,918.1,44007,Providence,{'44007':100},FALSE,FALSE,America/New_York
02839,41.9428,-71.6431,Mapleville,RI,Rhode Island,TRUE,,1902,169.7,44007,Providence,{'44007':100},FALSE,FALSE,America/New_York
02840,41.4778,-71.3203,Newport,RI,Rhode Island,TRUE,,23335,1246,44005,Newport,{'44005':100},FALSE,FALSE,America/New_York
02841,41.5133,-71.3238,Newport,RI,Rhode Island,TRUE,,1392,1152,44005,Newport,{'44005':100},FALSE,FALSE,America/New_York
02842,41.5174,-71.2771,Middletown,RI,Rhode Island,TRUE,,16095,489.6,44005,Newport,{'44005':100},FALSE,FALSE,America/New_York
02852,41.5877,-71.4608,North Kingstown,RI,Rhode Island,TRUE,,22551,281.9,44009,Washington,{'44009':100},FALSE,FALSE,America/New_York
02857,41.8293,-71.632,North Scituate,RI,Rhode Island,TRUE,,8412,77.8,44007,Providence,{'44007':100},FALSE,FALSE,America/New_York
02858,41.9635,-71.6483,Oakland,RI,Rhode Island,TRUE,,570,380.7,44007,Providence,{'44007':100},FALSE,FALSE,America/New_York
02859,41.9667,-71.7452,Pascoag,RI,Rhode Island,TRUE,,6738,91.7,44007,Providence,{'44007':100},FALSE,FALSE,America/New_York
02860,41.87,-71.3883,Pawtucket,RI,Rhode Island,TRUE,,45199,3233,44007,Providence,{'44007':100},FALSE,FALSE,America/New_York
02861,41.8784,-71.3523,Pawtucket,RI,Rhode Island,TRUE,,26178,2835.9,44007,Providence,"{'25005':0.05,'44007':99.95}",FALSE,FALSE,America/New_York
02863,41.89,-71.3934,Central Falls,RI,Rhode Island,TRUE,,19385,6231.1,44007,Providence,{'44007':100},FALSE,FALSE,America/New_York
02864,41.9704,-71.4198,Cumberland,RI,Rhode Island,TRUE,,33396,488.8,44007,Providence,{'44007':100},FALSE,FALSE,America/New_York
02865,41.9125,-71.4485,Lincoln,RI,Rhode Island,TRUE,,16951,392.1,44007,Providence,{'44007':100},FALSE,FALSE,America/New_York
02871,41.584,-71.2563,Portsmouth,RI,Rhode Island,TRUE,,17171,389.1,44005,Newport,{'44005':100},FALSE,FALSE,America/New_York
02872,41.6172,-71.3289,Prudence Island,RI,Rhode Island,TRUE,,218,14.2,44005,Newport,{'44005':100},FALSE,FALSE,America/New_York
02873,41.531,-71.7757,Rockville,RI,Rhode Island,TRUE,,235,32.3,44009,Washington,{'44009':100},FALSE,FALSE,America/New_York
02874,41.5154,-71.4688,Saunderstown,RI,Rhode Island,TRUE,,5860,149.2,44009,Washington,{'44009':100},FALSE,FALSE,America/New_York
02875,41.4556,-71.6381,Shannock,RI,Rhode Island,TRUE,,307,102.7,44009,Washington,{'44009':100},FALSE,FALSE,America/New_York
02876,41.9962,-71.5822,Slatersville,RI,Rhode Island,TRUE,,430,1310.6,44007,Providence,{'44007':100},FALSE,FALSE,America/New_York
02878,41.6091,-71.1741,Tiverton,RI,Rhode Island,TRUE,,15780,209.7,44005,Newport,{'44005':100},FALSE,FALSE,America/New_York
02879,41.4267,-71.5363,Wakefield,RI,Rhode Island,TRUE,,20371,210.4,44009,Washington,{'44009':100},FALSE,FALSE,America/New_York
02881,41.4789,-71.5234,Kingston,RI,Rhode Island,TRUE,,7841,837.7,44009,Washington,{'44009':100},FALSE,FALSE,America/New_York
02882,41.4248,-71.4686,Narragansett,RI,Rhode Island,TRUE,,14184,428,44009,Washington,{'44009':100},FALSE,FALSE,America/New_York
02885,41.7283,-71.2628,Warren,RI,Rhode Island,TRUE,,10627,670.3,44001,Bristol,{'44001':100},FALSE,FALSE,America/New_York
02886,41.7057,-71.4586,Warwick,RI,Rhode Island,TRUE,,29269,757.2,44003,Kent,{'44003':100},FALSE,FALSE,America/New_York
02888,41.7486,-71.4104,Warwick,RI,Rhode Island,TRUE,,19912,1296.4,44003,Kent,{'44003':100},FALSE,FALSE,America/New_York
02889,41.7057,-71.3921,Warwick,RI,Rhode Island,TRUE,,28217,1252.6,44003,Kent,{'44003':100},FALSE,FALSE,America/New_York
02891,41.3603,-71.7936,Westerly,RI,Rhode Island,TRUE,,21198,310.3,44009,Washington,{'44009':100},FALSE,FALSE,America/New_York
02892,41.4959,-71.5969,West Kingston,RI,Rhode Island,TRUE,,4988,70.3,44009,Washington,{'44009':100},FALSE,FALSE,America/New_York
02893,41.6986,-71.5154,West Warwick,RI,Rhode Island,TRUE,,29630,1453.4,44003,Kent,{'44003':100},FALSE,FALSE,America/New_York
02894,41.4473,-71.7005,Wood River Junction,RI,Rhode Island,TRUE,,722,64.3,44009,Washington,{'44009':100},FALSE,FALSE,America/New_York
02895,42.001,-71.4993,Woonsocket,RI,Rhode Island,TRUE,,41186,2054.8,44007,Providence,{'44007':100},FALSE,FALSE,America/New_York
02896,41.9724,-71.5509,North Smithfield,RI,Rhode Island,TRUE,,11537,188.1,44007,Providence,{'44007':100},FALSE,FALSE,America/New_York
02898,41.5153,-71.6757,Wyoming,RI,Rhode Island,TRUE,,1696,56.7,44009,Washington,{'44009':100},FALSE,FALSE,America/New_York
02903,41.818,-71.409,Providence,RI,Rhode Island,TRUE,,10780,2321,44007,Providence,{'44007':100},FALSE,FALSE,America/New_York
02904,41.8603,-71.4353,Providence,RI,Rhode Island,TRUE,,29359,2182.3,44007,Providence,{'44007':100},FALSE,FALSE,America/New_York
02905,41.7872,-71.3989,Providence,RI,Rhode Island,TRUE,,25223,2598.4,44007,Providence,{'44007':100},FALSE,FALSE,America/New_York
02906,41.8392,-71.3899,Providence,RI,Rhode Island,TRUE,,28387,3381.9,44007,Providence,{'44007':100},FALSE,FALSE,America/New_York
02907,41.7983,-71.4255,Providence,RI,Rhode Island,TRUE,,27445,4814.5,44007,Providence,{'44007':100},FALSE,FALSE,America/New_York
02908,41.8391,-71.4369,Providence,RI,Rhode Island,TRUE,,37467,4576.9,44007,Providence,{'44007':100},FALSE,FALSE,America/New_York
02909,41.8203,-71.4514,Providence,RI,Rhode Island,TRUE,,43540,4862.3,44007,Providence,{'44007':100},FALSE,FALSE,America/New_York
02910,41.7756,-71.4357,Cranston,RI,Rhode Island,TRUE,,21000,2356,44007,Providence,{'44007':100},FALSE,FALSE,America/New_York
02911,41.8547,-71.4735,North Providence,RI,Rhode Island,TRUE,,15574,2423.3,44007,Providence,{'44007':100},FALSE,FALSE,America/New_York
02912,41.8256,-71.4022,Providence,RI,Rhode Island,TRUE,,1370,12183.6,44007,Providence,{'44007':100},FALSE,FALSE,America/New_York
02914,41.8137,-71.3651,East Providence,RI,Rhode Island,TRUE,,21963,1736.1,44007,Providence,{'44007':100},FALSE,FALSE,America/New_York
02915,41.7776,-71.3501,Riverside,RI,Rhode Island,TRUE,,16897,1178.7,44007,Providence,{'44007':100},FALSE,FALSE,America/New_York
02916,41.8445,-71.352,Rumford,RI,Rhode Island,TRUE,,8139,1229.9,44007,Providence,{'44007':100},FALSE,FALSE,America/New_York
02917,41.9065,-71.5248,Smithfield,RI,Rhode Island,TRUE,,13762,249.1,44007,Providence,{'44007':100},FALSE,FALSE,America/New_York
02919,41.8274,-71.5199,Johnston,RI,Rhode Island,TRUE,,28790,473.3,44007,Providence,{'44007':100},FALSE,FALSE,America/New_York
02920,41.7674,-71.466,Cranston,RI,Rhode Island,TRUE,,37547,1578.5,44007,Providence,{'44007':100},FALSE,FALSE,America/New_York
02921,41.7622,-71.5174,Cranston,RI,Rhode Island,TRUE,,12361,363.1,44007,Providence,{'44007':100},FALSE,FALSE,America/New_York
03031,42.8704,-71.6081,Amherst,NH,New Hampshire,TRUE,,11247,125.2,33011,Hillsborough,{'33011':100},FALSE,FALSE,America/New_York
03032,42.9905,-71.3438,Auburn,NH,New Hampshire,TRUE,,4953,75.9,33015,Rockingham,{'33015':100},FALSE,FALSE,America/New_York
03033,42.7464,-71.6707,Brookline,NH,New Hampshire,TRUE,,4987,97.4,33011,Hillsborough,{'33011':100},FALSE,FALSE,America/New_York
03034,43.0634,-71.3118,Candia,NH,New Hampshire,TRUE,,3970,46.5,33015,Rockingham,{'33015':100},FALSE,FALSE,America/New_York
03036,42.9673,-71.2507,Chester,NH,New Hampshire,TRUE,,4782,71.2,33015,Rockingham,{'33015':100},FALSE,FALSE,America/New_York
03037,43.1396,-71.2526,Deerfield,NH,New Hampshire,TRUE,,4219,33.8,33015,Rockingham,{'33015':100},FALSE,FALSE,America/New_York
03038,42.8889,-71.2796,Derry,NH,New Hampshire,TRUE,,33269,356.9,33015,Rockingham,{'33015':100},FALSE,FALSE,America/New_York
03042,43.0501,-71.0748,Epping,NH,New Hampshire,TRUE,,6341,94.2,33015,Rockingham,{'33015':100},FALSE,FALSE,America/New_York
03043,42.9939,-71.8135,Francestown,NH,New Hampshire,TRUE,,1573,19.4,33011,Hillsborough,{'33011':100},FALSE,FALSE,America/New_York
03044,42.9887,-71.1252,Fremont,NH,New Hampshire,TRUE,,4263,97.3,33015,Rockingham,{'33015':100},FALSE,FALSE,America/New_York
03045,43.02,-71.5698,Goffstown,NH,New Hampshire,TRUE,,13560,146.8,33011,Hillsborough,{'33011':100},FALSE,FALSE,America/New_York
03046,43.1018,-71.6055,Dunbarton,NH,New Hampshire,TRUE,,2758,34.5,33013,Merrimack,{'33013':100},FALSE,FALSE,America/New_York
03047,42.9398,-71.8706,Greenfield,NH,New Hampshire,TRUE,,1767,25.9,33011,Hillsborough,{'33011':100},FALSE,FALSE,America/New_York
03048,42.7482,-71.762,Greenville,NH,New Hampshire,TRUE,,3426,44.8,33011,Hillsborough,{'33011':100},FALSE,FALSE,America/New_York
03049,42.7495,-71.5838,Hollis,NH,New Hampshire,TRUE,,7688,93.5,33011,Hillsborough,{'33011':100},FALSE,FALSE,America/New_York
03051,42.764,-71.4072,Hudson,NH,New Hampshire,TRUE,,24480,333.5,33011,Hillsborough,{'33011':100},FALSE,FALSE,America/New_York
03052,42.843,-71.455,Litchfield,NH,New Hampshire,TRUE,,8258,213.5,33011,Hillsborough,{'33011':100},FALSE,FALSE,America/New_York
03053,42.8786,-71.3861,Londonderry,NH,New Hampshire,TRUE,,23957,225.3,33015,Rockingham,{'33015':100},FALSE,FALSE,America/New_York
03054,42.8547,-71.519,Merrimack,NH,New Hampshire,TRUE,,25477,302.4,33011,Hillsborough,{'33011':100},FALSE,FALSE,America/New_York
03055,42.8177,-71.6738,Milford,NH,New Hampshire,TRUE,,15086,234.3,33011,Hillsborough,{'33011':100},FALSE,FALSE,America/New_York
03057,42.9027,-71.6841,Mont Vernon,NH,New Hampshire,TRUE,,2500,57.6,33011,Hillsborough,{'33011':100},FALSE,FALSE,America/New_York
03060,42.7412,-71.4592,Nashua,NH,New Hampshire,TRUE,,29357,1734.6,33011,Hillsborough,{'33011':100},FALSE,FALSE,America/New_York
03062,42.7222,-71.4957,Nashua,NH,New Hampshire,TRUE,,26694,853.1,33011,Hillsborough,{'33011':100},FALSE,FALSE,America/New_York
03063,42.7795,-71.5193,Nashua,NH,New Hampshire,TRUE,,16216,771.5,33011,Hillsborough,{'33011':100},FALSE,FALSE,America/New_York
03064,42.779,-71.4748,Nashua,NH,New Hampshire,TRUE,,14227,1331.3,33011,Hillsborough,{'33011':100},FALSE,FALSE,America/New_York
03070,42.9773,-71.6861,New Boston,NH,New Hampshire,TRUE,,5254,47.1,33011,Hillsborough,{'33011':100},FALSE,FALSE,America/New_York
03071,42.7491,-71.8749,New Ipswich,NH,New Hampshire,TRUE,,5109,60.3,33011,Hillsborough,{'33011':100},FALSE,FALSE,America/New_York
03076,42.7336,-71.324,Pelham,NH,New Hampshire,TRUE,,12897,188.7,33011,Hillsborough,{'33011':100},FALSE,FALSE,America/New_York
03077,43.0329,-71.198,Raymond,NH,New Hampshire,TRUE,,10155,133.3,33015,Rockingham,{'33015':100},FALSE,FALSE,America/New_York
03079,42.7903,-71.2201,Salem,NH,New Hampshire,TRUE,,28776,449.4,33015,Rockingham,{'33015':100},FALSE,FALSE,America/New_York
03082,42.9003,-71.7743,Lyndeborough,NH,New Hampshire,TRUE,,1615,21.8,33011,Hillsborough,{'33011':100},FALSE,FALSE,America/New_York
03084,42.829,-71.8551,Temple,NH,New Hampshire,TRUE,,1366,23.7,33011,Hillsborough,{'33011':100},FALSE,FALSE,America/New_York
03086,42.8294,-71.7713,Wilton,NH,New Hampshire,TRUE,,3728,53.4,33011,Hillsborough,{'33011':100},FALSE,FALSE,America/New_York
03087,42.8076,-71.2994,Windham,NH,New Hampshire,TRUE,,13592,195.8,33015,Rockingham,{'33015':100},FALSE,FALSE,America/New_York
03101,42.9889,-71.4659,Manchester,NH,New Hampshire,TRUE,,3049,1521.2,33011,Hillsborough,{'33011':100},FALSE,FALSE,America/New_York
03102,43.0076,-71.4911,Manchester,NH,New Hampshire,TRUE,,31096,1344.8,33011,Hillsborough,{'33011':100},FALSE,FALSE,America/New_York
03103,42.9533,-71.4443,Manchester,NH,New Hampshire,TRUE,,36476,1441.7,33011,Hillsborough,"{'33011':100,'33015':0}",FALSE,FALSE,America/New_York
03104,43.0094,-71.4414,Manchester,NH,New Hampshire,TRUE,,32798,1521.1,33011,Hillsborough,"{'33011':99.77,'33013':0.23}",FALSE,FALSE,America/New_York
03106,43.0713,-71.4367,Hooksett,NH,New Hampshire,TRUE,,13374,141.7,33013,Merrimack,{'33013':100},FALSE,FALSE,America/New_York
